yelp_id,yelp_poi_name,review_count,categories,rating,poi_distance,poi_latitude,poi_longitude,bike_station_id
Bc4GZfIUJu9363QQVACZVA,Caravan,151,"[{'alias': 'breakfast_brunch', 'title': 'Breakfast & Brunch'}, {'alias': 'cocktailbars', 'title': 'Cocktail Bars'}]",4.0,410,51.5254718215956,-0.110122750616417,7f3020118e56165ed8b2f61899edb971
aTjIuf-lCWF6vGYDlQTPSg,Honest Burgers Kings Cross,112,"[{'alias': 'burgers', 'title': 'Burgers'}]",4.5,655,51.5308718,-0.119039104215517,7f3020118e56165ed8b2f61899edb971
3R0Klq1B1ESNTwqPfcsY-w,The Pig and Butcher,118,"[{'alias': 'british', 'title': 'British'}, {'alias': 'gastropubs', 'title': 'Gastropubs'}]",4.5,945,51.537442542029,-0.10682789450616,7f3020118e56165ed8b2f61899edb971
KRS7yBZBFT80iA86ahtQ-g,Santore,63,"[{'alias': 'italian', 'title': 'Italian'}]",4.5,336,51.5262783740002,-0.108517492582082,7f3020118e56165ed8b2f61899edb971
MXIZq8lJq5R8m1H58nL0Aw,Craft Beer Co.,43,"[{'alias': 'pubs', 'title': 'Pubs'}]",4.5,404,51.532743541534,-0.111029873092527,7f3020118e56165ed8b2f61899edb971
P3YeWO3ODeWmQVi-IilkAQ,St John Bar and Restaurant,312,"[{'alias': 'british', 'title': 'British'}, {'alias': 'bars', 'title': 'Bars'}]",4.0,1129,51.520481,-0.101486,7f3020118e56165ed8b2f61899edb971
fpIx8nCBRqtImTkGJ-ujuQ,Morito,58,"[{'alias': 'tapasmallplates', 'title': 'Tapas/Small Plates'}, {'alias': 'spanish', 'title': 'Spanish'}]",4.0,374,51.5258712768555,-0.108857996761799,7f3020118e56165ed8b2f61899edb971
wh4R2zTxcjZw4JcQFNBtog,Aux Pains de Papy,33,"[{'alias': 'bakeries', 'title': 'Bakeries'}]",5.0,620,51.5273865,-0.1184675,7f3020118e56165ed8b2f61899edb971
q6KDb7nOXgQa5GTWBaCoCQ,Ciao Bella,138,"[{'alias': 'italian', 'title': 'Italian'}, {'alias': 'wine_bars', 'title': 'Wine Bars'}]",4.0,913,51.5232425139546,-0.119118084823987,7f3020118e56165ed8b2f61899edb971
sqNehSxT2qk5bAfdiOBl9Q,Brill,33,"[{'alias': 'media', 'title': 'Books, Mags, Music & Video'}, {'alias': 'coffee', 'title': 'Coffee & Tea'}]",4.5,358,51.525982413205,-0.10910041841816,7f3020118e56165ed8b2f61899edb971
5ctdM8Aiw1K9M6vZ2jUTeA,Sen Viet,71,"[{'alias': 'vietnamese', 'title': 'Vietnamese'}]",4.0,411,51.529089,-0.1159522,7f3020118e56165ed8b2f61899edb971
MCx1FDljaGB7wGdFtPHPtA,Moro Restaurant,79,"[{'alias': 'spanish', 'title': 'Spanish'}, {'alias': 'basque', 'title': 'Basque'}]",4.0,372,51.525859880105,-0.10906549497442,7f3020118e56165ed8b2f61899edb971
E2GbtvuTVKo23qJeyqc82w,Ngon Ngon,62,"[{'alias': 'vietnamese', 'title': 'Vietnamese'}, {'alias': 'noodles', 'title': 'Noodles'}]",4.5,778,51.5221634,-0.1097323,7f3020118e56165ed8b2f61899edb971
K7VTGghPis9MLzcWPVWISA,Chilango,157,"[{'alias': 'mexican', 'title': 'Mexican'}]",4.0,665,51.534366,-0.1053208,7f3020118e56165ed8b2f61899edb971
nwZeSFKD0dRqDM1H4pDy3w,Look Mum No Hands!,153,"[{'alias': 'bikes', 'title': 'Bikes'}, {'alias': 'cafes', 'title': 'Cafes'}, {'alias': 'bike_repair_maintenance', 'title': 'Bike Repair/Maintenance'}]",4.0,1068,51.524013227609,-0.096938452042226,7f3020118e56165ed8b2f61899edb971
zOLPCLptUE2UKRXYWCEHvg,The Modern Pantry,148,"[{'alias': 'breakfast_brunch', 'title': 'Breakfast & Brunch'}, {'alias': 'modern_european', 'title': 'Modern European'}]",4.0,812,51.5230301121618,-0.103575187145258,7f3020118e56165ed8b2f61899edb971
CQsUI0K8XOAwSR4gN6l55Q,Pizza Union,73,"[{'alias': 'pizza', 'title': 'Pizza'}]",4.5,713,51.531051655444,-0.11983242244974,7f3020118e56165ed8b2f61899edb971
8UiJVZg7t6tbEre16SRMrw,The Wilmington,40,"[{'alias': 'pubs', 'title': 'Pubs'}, {'alias': 'british', 'title': 'British'}]",4.5,342,51.5260871554743,-0.110079628401081,7f3020118e56165ed8b2f61899edb971
EKB76yylnWlS2ZvW5JqkWg,Delhi Grill,47,"[{'alias': 'indpak', 'title': 'Indian'}]",4.5,488,51.5335417,-0.1093436,7f3020118e56165ed8b2f61899edb971
ruccgDIBllsprKlP_7HBpg,The Easton,36,"[{'alias': 'pubs', 'title': 'Pubs'}, {'alias': 'gastropubs', 'title': 'Gastropubs'}]",4.5,330,51.526323227476,-0.11139933433552,7f3020118e56165ed8b2f61899edb971
x3a5aaaRt7wJkzrXfLG96Q,Dishoom - Kensington,253,"[{'alias': 'indpak', 'title': 'Indian'}, {'alias': 'breakfast_brunch', 'title': 'Breakfast & Brunch'}]",4.5,480,51.5012974019964,-0.191184893250465,67e6c16bce05410ba4b1f0f5000726ea
70Q-Ll18zb4aglXXbUG7lw,Ffiona's Restaurant,295,"[{'alias': 'british', 'title': 'British'}]",4.5,595,51.50405773515,-0.192783395566043,67e6c16bce05410ba4b1f0f5000726ea
OLXUZqx6doQtdeHfyEoyOw,Balans Soho Society,99,"[{'alias': 'breakfast_brunch', 'title': 'Breakfast & Brunch'}, {'alias': 'british', 'title': 'British'}, {'alias': 'cocktailbars', 'title': 'Cocktail Bars'}]",4.0,149,51.4999833,-0.1956639,67e6c16bce05410ba4b1f0f5000726ea
hGiblm0l67sLGTtsMvx51A,The Churchill Arms,381,"[{'alias': 'pubs', 'title': 'Pubs'}, {'alias': 'thai', 'title': 'Thai'}]",4.0,833,51.5068261,-0.194781,67e6c16bce05410ba4b1f0f5000726ea
5tAAwu7ZDhulLsyt09bXnw,Maggie Jones's,134,"[{'alias': 'british', 'title': 'British'}]",4.5,581,51.502856014927,-0.1909916674772,67e6c16bce05410ba4b1f0f5000726ea
jcWobjpfGS5AaJuh13UbUw,Il Portico,54,"[{'alias': 'italian', 'title': 'Italian'}]",4.5,200,51.4985799,-0.2000019,67e6c16bce05410ba4b1f0f5000726ea
disw05otT_liXnTEy-6ISA,Orjowan Lebanese Cuisine,113,"[{'alias': 'mideastern', 'title': 'Middle Eastern'}]",4.5,807,51.4928295219961,-0.193373873798701,67e6c16bce05410ba4b1f0f5000726ea
tcVWoHSko9PIy_Ec95_j1A,Candella Tea Room,93,"[{'alias': 'tea', 'title': 'Tea Rooms'}]",4.5,628,51.5040735504425,-0.192011632025242,67e6c16bce05410ba4b1f0f5000726ea
fsOgXPBc9ZAPFGSrHmLvuw,Holland Park,59,"[{'alias': 'parks', 'title': 'Parks'}]",4.5,466,51.5014628,-0.2036111,67e6c16bce05410ba4b1f0f5000726ea
xswz3LN249CBWn-Xc7u2lg,Kitchen W8,42,"[{'alias': 'french', 'title': 'French'}]",4.5,78,51.4992288,-0.1969429,67e6c16bce05410ba4b1f0f5000726ea
dZU-PrfDwH3LnuW7XGWi0w,Zaika of Kensington,84,"[{'alias': 'indpak', 'title': 'Indian'}]",4.5,774,51.502166,-0.187171,67e6c16bce05410ba4b1f0f5000726ea
ZfM-yM1OWk41l8RJNRMnvw,Da Mario Restaurant,171,"[{'alias': 'italian', 'title': 'Italian'}]",4.5,974,51.4987228161749,-0.183567237647306,67e6c16bce05410ba4b1f0f5000726ea
q7Oz1gTCgoQkFu3VoOQrDQ,Mohsen,80,"[{'alias': 'persian', 'title': 'Persian/Iranian'}, {'alias': 'mideastern', 'title': 'Middle Eastern'}]",4.5,618,51.495177,-0.20302,67e6c16bce05410ba4b1f0f5000726ea
PBFvhVyBi0lEJyTbyuxf5w,The Orangery,241,"[{'alias': 'british', 'title': 'British'}, {'alias': 'coffee', 'title': 'Coffee & Tea'}, {'alias': 'tea', 'title': 'Tea Rooms'}]",4.0,1037,51.5066360577041,-0.187725349125042,67e6c16bce05410ba4b1f0f5000726ea
dXEPhJmyV9BiA77wdAfEmg,The Blackbird,172,"[{'alias': 'pubs', 'title': 'Pubs'}, {'alias': 'british', 'title': 'British'}, {'alias': 'breakfast_brunch', 'title': 'Breakfast & Brunch'}]",4.0,947,51.49178,-0.19211,67e6c16bce05410ba4b1f0f5000726ea
Gdqq0f4R8pBXIcHvAI3SuQ,The Abingdon,54,"[{'alias': 'newamerican', 'title': 'American (New)'}]",4.5,243,51.497629045444,-0.19607751802576,67e6c16bce05410ba4b1f0f5000726ea
HntBHodgbw-vhW3MaCqbcw,The Windsor Castle,122,"[{'alias': 'pubs', 'title': 'Pubs'}, {'alias': 'british', 'title': 'British'}]",4.0,690,51.505787326816,-0.198597460985184,67e6c16bce05410ba4b1f0f5000726ea
l_Y75MzPOr1-PxuJw0JdWg,Addie's Thai Cafe,120,"[{'alias': 'thai', 'title': 'Thai'}]",4.0,669,51.493824,-0.194675,67e6c16bce05410ba4b1f0f5000726ea
8hz9UOfK0mIsAzs90vrN8Q,The Muffin Man Tea Shop,115,"[{'alias': 'coffee', 'title': 'Coffee & Tea'}, {'alias': 'tea', 'title': 'Tea Rooms'}]",3.5,332,51.49944,-0.1928114,67e6c16bce05410ba4b1f0f5000726ea
-E5pZ_XXmQM9BCprahxnaw,The Scarsdale Tavern,65,"[{'alias': 'pubs', 'title': 'Pubs'}]",4.0,308,51.496972727492,-0.19898382361723,67e6c16bce05410ba4b1f0f5000726ea
vlq4D26p_143Tj21OF-iMA,Dishoom,577,"[{'alias': 'indpak', 'title': 'Indian'}, {'alias': 'breakfast_brunch', 'title': 'Breakfast & Brunch'}]",4.5,661,51.5245310066818,-0.076594190862934,2d1fd6bf5426f3dc34fae06f43f76f69
hOLFwKg4-0FsCleJ4yoCXw,Duck & Waffle,827,"[{'alias': 'modern_european', 'title': 'Modern European'}, {'alias': 'bars', 'title': 'Bars'}, {'alias': 'british', 'title': 'British'}]",4.0,621,51.516178,-0.08094,2d1fd6bf5426f3dc34fae06f43f76f69
68gc1BAE1IT_zZghFafw0Q,Ozone Coffee,193,"[{'alias': 'coffee', 'title': 'Coffee & Tea'}, {'alias': 'breakfast_brunch', 'title': 'Breakfast & Brunch'}]",4.5,404,51.524683689256,-0.086674106560876,2d1fd6bf5426f3dc34fae06f43f76f69
CrQcYS4nWWdXmSD1pxf_KA,Beigel Bake,489,"[{'alias': 'bakeries', 'title': 'Bakeries'}, {'alias': 'bagels', 'title': 'Bagels'}]",4.0,955,51.524391,-0.071726,2d1fd6bf5426f3dc34fae06f43f76f69
emdb4ELhKKQXpJ0lIOdg0w,Nightjar,186,"[{'alias': 'lounges', 'title': 'Lounges'}, {'alias': 'cocktailbars', 'title': 'Cocktail Bars'}]",4.5,622,51.5265350341797,-0.0877109989523888,2d1fd6bf5426f3dc34fae06f43f76f69
qF2RobL-4k6IYnS6hpqEyA,Poppies,374,"[{'alias': 'fishnchips', 'title': 'Fish & Chips'}, {'alias': 'hotdogs', 'title': 'Fast Food'}]",4.0,737,51.5202629,-0.074075,2d1fd6bf5426f3dc34fae06f43f76f69
DI9SUiuxlf1WjkTu_jJSbg,Hawksmoor Spitalfields,177,"[{'alias': 'steak', 'title': 'Steakhouses'}, {'alias': 'british', 'title': 'British'}]",4.5,619,51.5211502,-0.075657,2d1fd6bf5426f3dc34fae06f43f76f69
PrIqHQtsQl-DnafTdS326A,Whitecross Market,73,"[{'alias': 'streetvendors', 'title': 'Street Vendors'}]",4.5,590,51.5228285836074,-0.0927653379297215,2d1fd6bf5426f3dc34fae06f43f76f69
-ylzTrYtRJUJa2BuAInoyQ,Friends of Ours,96,"[{'alias': 'cafes', 'title': 'Cafes'}]",4.5,869,51.5291189,-0.0836995,2d1fd6bf5426f3dc34fae06f43f76f69
JhmrjmyrIhAVlM0D0n3VoQ,Sushisamba,271,"[{'alias': 'asianfusion', 'title': 'Asian Fusion'}, {'alias': 'sushi', 'title': 'Sushi Bars'}]",4.0,621,51.516179,-0.080946,2d1fd6bf5426f3dc34fae06f43f76f69
m3vdBGC0X94sG_5pglDcjQ,St. John Bread & Wine,139,"[{'alias': 'bakeries', 'title': 'Bakeries'}, {'alias': 'beer_and_wine', 'title': 'Beer, Wine & Spirits'}]",4.5,737,51.5196695,-0.074299,2d1fd6bf5426f3dc34fae06f43f76f69
4lCI-05rQo2hQMr9qXKJAQ,Pizza Union,92,"[{'alias': 'pizza', 'title': 'Pizza'}]",4.5,652,51.5175265894232,-0.0773585960268974,2d1fd6bf5426f3dc34fae06f43f76f69
vCF8ut7OZcfA4hEmhngfSQ,Andina,148,"[{'alias': 'breakfast_brunch', 'title': 'Breakfast & Brunch'}, {'alias': 'peruvian', 'title': 'Peruvian'}]",4.0,617,51.5243208695971,-0.077134990126122,2d1fd6bf5426f3dc34fae06f43f76f69
SCdYgnZUaaQiCAUnfRxlsg,Happiness Forgets,111,"[{'alias': 'cocktailbars', 'title': 'Cocktail Bars'}]",4.5,742,51.52770282863,-0.0816464424133301,2d1fd6bf5426f3dc34fae06f43f76f69
iDneZRtqN6dimKmcNQjVZA,The Clove Club,110,"[{'alias': 'british', 'title': 'British'}, {'alias': 'cocktailbars', 'title': 'Cocktail Bars'}]",4.5,744,51.5270489,-0.0791196,2d1fd6bf5426f3dc34fae06f43f76f69
vvE5E6WcPkK6ZB3Ivkqiqg,Flat Iron,51,"[{'alias': 'steak', 'title': 'Steakhouses'}]",4.5,497,51.5247221,-0.0804249,2d1fd6bf5426f3dc34fae06f43f76f69
O3WaROs_7OFbYv4B-7m02Q,Polo 24 Hour Bar,111,"[{'alias': 'diners', 'title': 'Diners'}, {'alias': 'cafes', 'title': 'Cafes'}, {'alias': 'breakfast_brunch', 'title': 'Breakfast & Brunch'}]",4.0,488,51.517821,-0.080269,2d1fd6bf5426f3dc34fae06f43f76f69
ZLPQlA8pLRvNQ1kDCVHmVQ,Pizza East,245,"[{'alias': 'pizza', 'title': 'Pizza'}, {'alias': 'desserts', 'title': 'Desserts'}, {'alias': 'breakfast_brunch', 'title': 'Breakfast & Brunch'}]",3.5,587,51.5240601,-0.0770451,2d1fd6bf5426f3dc34fae06f43f76f69
xcWZzhS9HgG3-H6xQMtOtA,The Mayor of Scaredy Cat Town,100,"[{'alias': 'lounges', 'title': 'Lounges'}]",4.0,518,51.51837,-0.07872,2d1fd6bf5426f3dc34fae06f43f76f69
XPrf1WmmdQ3hyjCExAjrIA,Lounge Bohemia,68,"[{'alias': 'lounges', 'title': 'Lounges'}]",4.5,485,51.5229139449655,-0.0780906239161028,2d1fd6bf5426f3dc34fae06f43f76f69
IWl1Y0eQOZSnYeIDw94svg,Monmouth Coffee,317,"[{'alias': 'coffee', 'title': 'Coffee & Tea'}]",4.5,101,51.5055383383613,-0.0914615294783139,26184215d38089fcad213ef222e69780
QXOrompG3b2o7g6P4ePb5w,Tate Modern,727,"[{'alias': 'artmuseums', 'title': 'Art Museums'}]",4.0,488,51.5078610102146,-0.0991344451904297,26184215d38089fcad213ef222e69780
KzYd2EaFvmu63wqTIektSA,Padella,265,"[{'alias': 'italian', 'title': 'Italian'}]",4.5,219,51.5051451,-0.0899515,26184215d38089fcad213ef222e69780
KZd0pTzAhKbIs9Lg94Delg,Bread Ahead Bakery | Borough Market,96,"[{'alias': 'bakeries', 'title': 'Bakeries'}]",4.5,173,51.5061427,-0.090258,26184215d38089fcad213ef222e69780
K0lmqEgpNz97FausJUyn1A,Swan,258,"[{'alias': 'british', 'title': 'British'}, {'alias': 'bars', 'title': 'Bars'}, {'alias': 'venues', 'title': 'Venues & Event Spaces'}]",4.0,394,51.50835,-0.096985,26184215d38089fcad213ef222e69780
rKwkCvsSfp8z7w1CmNnMMQ,The Table,288,"[{'alias': 'british', 'title': 'British'}, {'alias': 'breakfast_brunch', 'title': 'Breakfast & Brunch'}, {'alias': 'bars', 'title': 'Bars'}]",4.0,480,51.505604,-0.099671,26184215d38089fcad213ef222e69780
4CGgn2MmN5Z7B6GAlMAcxQ,Mango Indian,144,"[{'alias': 'indpak', 'title': 'Indian'}]",4.5,113,51.504962,-0.092963,26184215d38089fcad213ef222e69780
mvs07Hrm2YrwObqDubABFg,St. Paul's Cathedral,313,"[{'alias': 'landmarks', 'title': 'Landmarks & Historical Buildings'}, {'alias': 'churches', 'title': 'Churches'}]",4.5,977,51.5137180425786,-0.0994492651268561,26184215d38089fcad213ef222e69780
h65i1MG-qok2e2eFU_1h1w,Sky Garden,242,"[{'alias': 'landmarks', 'title': 'Landmarks & Historical Buildings'}]",4.5,863,51.511313200747,-0.0836999694629159,26184215d38089fcad213ef222e69780
nowLq0ziL3B0Acpyhgs_RA,The View From The Shard,172,"[{'alias': 'landmarks', 'title': 'Landmarks & Historical Buildings'}]",4.0,475,51.5042670700976,-0.0864594091162376,26184215d38089fcad213ef222e69780
iVs-N80pYt58IKqFBP1IHA,fish!,194,"[{'alias': 'fishnchips', 'title': 'Fish & Chips'}, {'alias': 'seafood', 'title': 'Seafood'}]",3.5,173,51.5057616189729,-0.0902772509261922,26184215d38089fcad213ef222e69780
34F8sZE1xq-Ki-zSPbHrGg,Wright Brothers,94,"[{'alias': 'seafood', 'title': 'Seafood'}]",4.0,92,51.5056293987386,-0.0915365713523675,26184215d38089fcad213ef222e69780
qaSQQRWgxlWgGgQPHbfgbA,Millennium Bridge,125,"[{'alias': 'landmarks', 'title': 'Landmarks & Historical Buildings'}]",4.5,548,51.5093109572,-0.0985913331076,26184215d38089fcad213ef222e69780
bibItX92d7LSCVThLeXb8Q,Tapas Brindisa,141,"[{'alias': 'tapas', 'title': 'Tapas Bars'}, {'alias': 'breakfast_brunch', 'title': 'Breakfast & Brunch'}, {'alias': 'mediterranean', 'title': 'Mediterranean'}]",4.0,192,51.505063,-0.090526,26184215d38089fcad213ef222e69780
7_mJPWb6tREPW58f2xRpgA,Where the Pancakes are,88,"[{'alias': 'pancakes', 'title': 'Pancakes'}]",4.5,261,51.504367,-0.0955551,26184215d38089fcad213ef222e69780
VFt0kawsBqqNIh9UJYS4tg,The George Inn,145,"[{'alias': 'pubs', 'title': 'Pubs'}, {'alias': 'british', 'title': 'British'}]",4.0,277,51.5040031333562,-0.0902946426058238,26184215d38089fcad213ef222e69780
pMZ4XI-RsAxY6YK3xHVFJA,Boro Bistro,42,"[{'alias': 'pubs', 'title': 'Pubs'}, {'alias': 'french', 'title': 'French'}]",4.5,274,51.5061193239226,-0.0887993531057241,26184215d38089fcad213ef222e69780
Di9NvNc6fECXHxyxuyGdrg,Hawksmoor,35,"[{'alias': 'steak', 'title': 'Steakhouses'}, {'alias': 'wine_bars', 'title': 'Wine Bars'}, {'alias': 'cocktailbars', 'title': 'Cocktail Bars'}]",4.5,103,51.5062318,-0.0913238,26184215d38089fcad213ef222e69780
Z0r83lDOA1mI8RpNccXtHw,The Fat Bear,127,"[{'alias': 'tradamerican', 'title': 'American (Traditional)'}, {'alias': 'soulfood', 'title': 'Soul Food'}, {'alias': 'cajun', 'title': 'Cajun/Creole'}]",4.5,999,51.5131833881734,-0.10138103121642,26184215d38089fcad213ef222e69780
GTImh5FbaxKTo8TXyxRT4w,Rabot 1745,79,"[{'alias': 'coffee', 'title': 'Coffee & Tea'}, {'alias': 'newamerican', 'title': 'American (New)'}]",4.0,203,51.5053829371106,-0.0899640662595528,26184215d38089fcad213ef222e69780
YRA2VnhFLChIh1ZD31cXjg,The British Museum,1087,"[{'alias': 'museums', 'title': 'Museums'}]",4.5,674,51.518298,-0.126026,1eabd7ac8e781befd03f52ef56a18aa7
lMVdwKmsxLgqczUXXfgqGg,Punjab Restaurant,584,"[{'alias': 'indpak', 'title': 'Indian'}, {'alias': 'vegetarian', 'title': 'Vegetarian'}]",4.0,1024,51.514992,-0.12596,1eabd7ac8e781befd03f52ef56a18aa7
q6KDb7nOXgQa5GTWBaCoCQ,Ciao Bella,138,"[{'alias': 'italian', 'title': 'Italian'}, {'alias': 'wine_bars', 'title': 'Wine Bars'}]",4.0,247,51.5232425139546,-0.119118084823987,1eabd7ac8e781befd03f52ef56a18aa7
r34qKF45zXSpYqTXnhq4RA,North Sea Fish Restaurant,180,"[{'alias': 'seafood', 'title': 'Seafood'}, {'alias': 'fishnchips', 'title': 'Fish & Chips'}]",4.0,330,51.526474,-0.125051,1eabd7ac8e781befd03f52ef56a18aa7
4ibHPLYd299_m1LOdcqxXw,Savoir Faire,212,"[{'alias': 'french', 'title': 'French'}]",4.5,786,51.5171949,-0.1260125,1eabd7ac8e781befd03f52ef56a18aa7
bVSdbV-LXvyxik6F7u4KXQ,The Marquis Cornwallis,113,"[{'alias': 'pubs', 'title': 'Pubs'}, {'alias': 'british', 'title': 'British'}]",4.0,187,51.524567356394,-0.12502513122867,1eabd7ac8e781befd03f52ef56a18aa7
Zc0HW9Q1HAXNkiiyh9G_Lw,Abeno,114,"[{'alias': 'japanese', 'title': 'Japanese'}]",4.5,737,51.5175591,-0.125158,1eabd7ac8e781befd03f52ef56a18aa7
Odvs0d73SgqDiOQVPNi0dQ,Kanada-Ya,183,"[{'alias': 'ramen', 'title': 'Ramen'}]",4.5,998,51.51555,-0.127588,1eabd7ac8e781befd03f52ef56a18aa7
n_oGHFO88muDRn6vgQLjqw,Princess Louise,139,"[{'alias': 'pubs', 'title': 'Pubs'}, {'alias': 'british', 'title': 'British'}]",4.0,743,51.517294236118,-0.12157103373648,1eabd7ac8e781befd03f52ef56a18aa7
E_3NekwxctQ3BzN7tLKk2A,Casa Tua,51,"[{'alias': 'coffee', 'title': 'Coffee & Tea'}, {'alias': 'italian', 'title': 'Italian'}, {'alias': 'breakfast_brunch', 'title': 'Breakfast & Brunch'}]",4.5,417,51.5276449011142,-0.123588235886524,1eabd7ac8e781befd03f52ef56a18aa7
gDP6gDHQGKFry_IkHOGflA,Hare & Tortoise,111,"[{'alias': 'chinese', 'title': 'Chinese'}, {'alias': 'japanese', 'title': 'Japanese'}]",3.5,29,51.5238573117279,-0.122894760945433,1eabd7ac8e781befd03f52ef56a18aa7
wh4R2zTxcjZw4JcQFNBtog,Aux Pains de Papy,33,"[{'alias': 'bakeries', 'title': 'Bakeries'}]",5.0,473,51.5273865,-0.1184675,1eabd7ac8e781befd03f52ef56a18aa7
1TgYqfxkXv6-IB4cvuuy3w,Tea and Tattle,89,"[{'alias': 'british', 'title': 'British'}, {'alias': 'coffee', 'title': 'Coffee & Tea'}]",4.5,742,51.5178680419922,-0.126817002892494,1eabd7ac8e781befd03f52ef56a18aa7
aTjIuf-lCWF6vGYDlQTPSg,Honest Burgers Kings Cross,112,"[{'alias': 'burgers', 'title': 'Burgers'}]",4.5,805,51.5308718,-0.119039104215517,1eabd7ac8e781befd03f52ef56a18aa7
kDw0RC24G3714nPXq34q2Q,Wellcome Collection,94,"[{'alias': 'museums', 'title': 'Museums'}]",4.5,831,51.5260571,-0.1340295,1eabd7ac8e781befd03f52ef56a18aa7
LyXXTUzll212_JKMkzC3DQ,49 Cafe,43,"[{'alias': 'modern_european', 'title': 'Modern European'}, {'alias': 'british', 'title': 'British'}, {'alias': 'cafes', 'title': 'Cafes'}]",4.5,215,51.5249587,-0.1251605,1eabd7ac8e781befd03f52ef56a18aa7
8gqkjHd2E7PHYWNfw0DVvg,Burger and Shake,59,"[{'alias': 'burgers', 'title': 'Burgers'}]",4.0,215,51.525005,-0.125415,1eabd7ac8e781befd03f52ef56a18aa7
Bc4GZfIUJu9363QQVACZVA,Caravan,151,"[{'alias': 'breakfast_brunch', 'title': 'Breakfast & Brunch'}, {'alias': 'cocktailbars', 'title': 'Cocktail Bars'}]",4.0,872,51.5254718215956,-0.110122750616417,1eabd7ac8e781befd03f52ef56a18aa7
tHKiDGayBq4RD0oL-DutCg,Bloomsbury Coffee House,61,"[{'alias': 'coffee', 'title': 'Coffee & Tea'}, {'alias': 'cafes', 'title': 'Cafes'}]",4.0,305,51.525250540481,-0.126389201213277,1eabd7ac8e781befd03f52ef56a18aa7
Tp5yDvTTI0nBlfbeR9sAxw,Espresso Room,45,"[{'alias': 'coffee', 'title': 'Coffee & Tea'}]",4.5,293,51.5218919,-0.1197139,1eabd7ac8e781befd03f52ef56a18aa7
YRA2VnhFLChIh1ZD31cXjg,The British Museum,1087,"[{'alias': 'museums', 'title': 'Museums'}]",4.5,484,51.518298,-0.126026,23efb32f80a9dcd0e4f61fb44b353ce1
lMVdwKmsxLgqczUXXfgqGg,Punjab Restaurant,584,"[{'alias': 'indpak', 'title': 'Indian'}, {'alias': 'vegetarian', 'title': 'Vegetarian'}]",4.0,805,51.514992,-0.12596,23efb32f80a9dcd0e4f61fb44b353ce1
0B-ag3J18TatG9H9EQohGg,Hawksmoor Seven Dials,372,"[{'alias': 'british', 'title': 'British'}, {'alias': 'steak', 'title': 'Steakhouses'}, {'alias': 'cocktailbars', 'title': 'Cocktail Bars'}]",4.5,967,51.5134998914001,-0.12567396291297,23efb32f80a9dcd0e4f61fb44b353ce1
mc1KLbA1Sy4kUTKo0ZEeRQ,Dishoom,633,"[{'alias': 'indpak', 'title': 'Indian'}]",4.5,1153,51.513087,-0.139767,23efb32f80a9dcd0e4f61fb44b353ce1
Opa8XUwUghxbGFafvubV6A,Monmouth Coffee,323,"[{'alias': 'coffee', 'title': 'Coffee & Tea'}]",4.5,850,51.5143539,-0.1269168,23efb32f80a9dcd0e4f61fb44b353ce1
4ibHPLYd299_m1LOdcqxXw,Savoir Faire,212,"[{'alias': 'french', 'title': 'French'}]",4.5,594,51.5171949,-0.1260125,23efb32f80a9dcd0e4f61fb44b353ce1
zdyKTWY6jDasd6Q8BEJdAw,Honest Burgers Meard St - Soho,301,"[{'alias': 'burgers', 'title': 'Burgers'}]",4.5,934,51.5134184063764,-0.132883885733008,23efb32f80a9dcd0e4f61fb44b353ce1
3AqrHgpIbcMXj0q-p_oPzg,Homeslice Neal's Yard,256,"[{'alias': 'pizza', 'title': 'Pizza'}]",4.5,851,51.5144380966574,-0.126426543278564,23efb32f80a9dcd0e4f61fb44b353ce1
tYynO1nOy1GKxMV3jkxbmw,The Breakfast Club,551,"[{'alias': 'coffee', 'title': 'Coffee & Tea'}, {'alias': 'breakfast_brunch', 'title': 'Breakfast & Brunch'}, {'alias': 'tradamerican', 'title': 'American (Traditional)'}]",4.0,846,51.514733,-0.135406,23efb32f80a9dcd0e4f61fb44b353ce1
sYwBQ7mJYhB35nn-_SZstQ,Yauatcha,518,"[{'alias': 'dimsum', 'title': 'Dim Sum'}, {'alias': 'seafood', 'title': 'Seafood'}, {'alias': 'noodles', 'title': 'Noodles'}]",4.0,944,51.5137076071076,-0.135128831605189,23efb32f80a9dcd0e4f61fb44b353ce1
LSvWWKNJi4-gaaRDU-VVYA,Golden Union Fish Bar,315,"[{'alias': 'fishnchips', 'title': 'Fish & Chips'}]",4.0,860,51.5153383,-0.1376925,23efb32f80a9dcd0e4f61fb44b353ce1
Odvs0d73SgqDiOQVPNi0dQ,Kanada-Ya,183,"[{'alias': 'ramen', 'title': 'Ramen'}]",4.5,709,51.51555,-0.127588,23efb32f80a9dcd0e4f61fb44b353ce1
ECyM2jq83wTVQrf9CEI01A,Burger & Lobster,315,"[{'alias': 'seafood', 'title': 'Seafood'}, {'alias': 'burgers', 'title': 'Burgers'}]",4.0,915,51.5135487,-0.1322316,23efb32f80a9dcd0e4f61fb44b353ce1
mvds37L7mCurGn3rGPM8ag,Kaffeine,181,"[{'alias': 'coffee', 'title': 'Coffee & Tea'}]",4.5,776,51.51848,-0.14037,23efb32f80a9dcd0e4f61fb44b353ce1
Zc0HW9Q1HAXNkiiyh9G_Lw,Abeno,114,"[{'alias': 'japanese', 'title': 'Japanese'}]",4.5,584,51.5175591,-0.125158,23efb32f80a9dcd0e4f61fb44b353ce1
ggwDV5tRXMfQJvH2-yZVug,The Barbary,85,"[{'alias': 'mideastern', 'title': 'Middle Eastern'}, {'alias': 'mediterranean', 'title': 'Mediterranean'}]",5.0,854,51.5144480132327,-0.126241173962971,23efb32f80a9dcd0e4f61fb44b353ce1
ZKfiQaOMDu7rfVhmMmQ0bQ,Berners Tavern,128,"[{'alias': 'british', 'title': 'British'}, {'alias': 'pubs', 'title': 'Pubs'}]",4.5,669,51.5167515074354,-0.135977268218994,23efb32f80a9dcd0e4f61fb44b353ce1
zJNI06Y2zZQFh9OBSFCdgQ,Sketch,941,"[{'alias': 'french', 'title': 'French'}, {'alias': 'modern_european', 'title': 'Modern European'}, {'alias': 'cocktailbars', 'title': 'Cocktail Bars'}]",4.0,1256,51.5127614699071,-0.14159163911048,23efb32f80a9dcd0e4f61fb44b353ce1
1TgYqfxkXv6-IB4cvuuy3w,Tea and Tattle,89,"[{'alias': 'british', 'title': 'British'}, {'alias': 'coffee', 'title': 'Coffee & Tea'}]",4.5,493,51.5178680419922,-0.126817002892494,23efb32f80a9dcd0e4f61fb44b353ce1
bz-YqeJaLeQCP85S6e0pig,Roka,141,"[{'alias': 'japanese', 'title': 'Japanese'}, {'alias': 'seafood', 'title': 'Seafood'}]",4.0,456,51.5189741386939,-0.135395835697745,23efb32f80a9dcd0e4f61fb44b353ce1
R1UKQHTz65dQKkdLjzVEBg,Dishoom,451,"[{'alias': 'indpak', 'title': 'Indian'}, {'alias': 'breakfast_brunch', 'title': 'Breakfast & Brunch'}]",4.5,716,51.5363182978271,-0.125145272091882,025ecd9d4f9708f515a36660227c8f3f
aTjIuf-lCWF6vGYDlQTPSg,Honest Burgers Kings Cross,112,"[{'alias': 'burgers', 'title': 'Burgers'}]",4.5,333,51.5308718,-0.119039104215517,025ecd9d4f9708f515a36660227c8f3f
r34qKF45zXSpYqTXnhq4RA,North Sea Fish Restaurant,180,"[{'alias': 'seafood', 'title': 'Seafood'}, {'alias': 'fishnchips', 'title': 'Fish & Chips'}]",4.0,411,51.526474,-0.125051,025ecd9d4f9708f515a36660227c8f3f
B6ayHXLwfYBuIADficAeMg,Caravan Kings Cross,180,"[{'alias': 'breakfast_brunch', 'title': 'Breakfast & Brunch'}, {'alias': 'tapas', 'title': 'Tapas Bars'}]",4.0,660,51.5357788239146,-0.125370576153865,025ecd9d4f9708f515a36660227c8f3f
E_3NekwxctQ3BzN7tLKk2A,Casa Tua,51,"[{'alias': 'coffee', 'title': 'Coffee & Tea'}, {'alias': 'italian', 'title': 'Italian'}, {'alias': 'breakfast_brunch', 'title': 'Breakfast & Brunch'}]",4.5,255,51.5276449011142,-0.123588235886524,025ecd9d4f9708f515a36660227c8f3f
FXSGVcfBDYytOHHyLsoCCg,Albertini Restaurant,59,"[{'alias': 'pizza', 'title': 'Pizza'}, {'alias': 'italian', 'title': 'Italian'}, {'alias': 'seafood', 'title': 'Seafood'}]",4.5,390,51.5290298461914,-0.129214003682137,025ecd9d4f9708f515a36660227c8f3f
CQsUI0K8XOAwSR4gN6l55Q,Pizza Union,73,"[{'alias': 'pizza', 'title': 'Pizza'}]",4.5,289,51.531051655444,-0.11983242244974,025ecd9d4f9708f515a36660227c8f3f
wh4R2zTxcjZw4JcQFNBtog,Aux Pains de Papy,33,"[{'alias': 'bakeries', 'title': 'Bakeries'}]",5.0,455,51.5273865,-0.1184675,025ecd9d4f9708f515a36660227c8f3f
kDw0RC24G3714nPXq34q2Q,Wellcome Collection,94,"[{'alias': 'museums', 'title': 'Museums'}]",4.5,840,51.5260571,-0.1340295,025ecd9d4f9708f515a36660227c8f3f
WJThPvvsOuuIK_9ad2QRIg,Roti King,109,"[{'alias': 'indpak', 'title': 'Indian'}, {'alias': 'asianfusion', 'title': 'Asian Fusion'}, {'alias': 'singaporean', 'title': 'Singaporean'}]",4.0,591,51.5291481,-0.1320656,025ecd9d4f9708f515a36660227c8f3f
q6KDb7nOXgQa5GTWBaCoCQ,Ciao Bella,138,"[{'alias': 'italian', 'title': 'Italian'}, {'alias': 'wine_bars', 'title': 'Wine Bars'}]",4.0,807,51.5232425139546,-0.119118084823987,025ecd9d4f9708f515a36660227c8f3f
1lPSja-BUNRJWoBRn9oV7w,"Drink, Shop & Do",70,"[{'alias': 'bars', 'title': 'Bars'}, {'alias': 'danceclubs', 'title': 'Dance Clubs'}, {'alias': 'venues', 'title': 'Venues & Event Spaces'}]",4.0,230,51.531336,-0.121145,025ecd9d4f9708f515a36660227c8f3f
bVSdbV-LXvyxik6F7u4KXQ,The Marquis Cornwallis,113,"[{'alias': 'pubs', 'title': 'Pubs'}, {'alias': 'british', 'title': 'British'}]",4.0,605,51.524567356394,-0.12502513122867,025ecd9d4f9708f515a36660227c8f3f
4IpNjfnu3VnM8p7_i4or4Q,German Gymnasium,60,"[{'alias': 'german', 'title': 'German'}]",4.0,300,51.5323975443626,-0.125419827905187,025ecd9d4f9708f515a36660227c8f3f
OyLrjCVSSp5UUAYe9Vm0Hg,Camino,108,"[{'alias': 'bars', 'title': 'Bars'}, {'alias': 'spanish', 'title': 'Spanish'}, {'alias': 'basque', 'title': 'Basque'}]",3.5,196,51.5312937277784,-0.121793746948242,025ecd9d4f9708f515a36660227c8f3f
fHIKopvPKVG0IJ7cHy3Zow,Piebury Corner,29,"[{'alias': 'british', 'title': 'British'}]",4.5,213,51.5311405,-0.1211956,025ecd9d4f9708f515a36660227c8f3f
lJ5q7EkXvKtku0aUgsTrAw,The Harrison,57,"[{'alias': 'gastropubs', 'title': 'Gastropubs'}, {'alias': 'british', 'title': 'British'}, {'alias': 'bedbreakfast', 'title': 'Bed & Breakfast'}]",4.0,339,51.527533751588,-0.1206015435123,025ecd9d4f9708f515a36660227c8f3f
WviWKTmXpSZWv7Pdt_7RyQ,Pompidou Cafe,47,"[{'alias': 'coffee', 'title': 'Coffee & Tea'}, {'alias': 'breakfast_brunch', 'title': 'Breakfast & Brunch'}, {'alias': 'cafes', 'title': 'Cafes'}]",4.0,189,51.5310148,-0.1213579,025ecd9d4f9708f515a36660227c8f3f
hWJYKoBLzeQ6STpTp6FoYw,Paolina's Thai Cafe,49,"[{'alias': 'coffee', 'title': 'Coffee & Tea'}, {'alias': 'thai', 'title': 'Thai'}]",4.5,362,51.530469,-0.118457,025ecd9d4f9708f515a36660227c8f3f
fwxYUA9SUQfFicYwE-frKw,The Booking Office Bar & Restaurant,62,"[{'alias': 'bars', 'title': 'Bars'}, {'alias': 'modern_european', 'title': 'Modern European'}, {'alias': 'british', 'title': 'British'}]",4.0,160,51.5300419809791,-0.125931963754283,025ecd9d4f9708f515a36660227c8f3f
YRA2VnhFLChIh1ZD31cXjg,The British Museum,1087,"[{'alias': 'museums', 'title': 'Museums'}]",4.5,896,51.518298,-0.126026,4c4028fef9930764b34cc63c411cd29f
r34qKF45zXSpYqTXnhq4RA,North Sea Fish Restaurant,180,"[{'alias': 'seafood', 'title': 'Seafood'}, {'alias': 'fishnchips', 'title': 'Fish & Chips'}]",4.0,50,51.526474,-0.125051,4c4028fef9930764b34cc63c411cd29f
bVSdbV-LXvyxik6F7u4KXQ,The Marquis Cornwallis,113,"[{'alias': 'pubs', 'title': 'Pubs'}, {'alias': 'british', 'title': 'British'}]",4.0,209,51.524567356394,-0.12502513122867,4c4028fef9930764b34cc63c411cd29f
E_3NekwxctQ3BzN7tLKk2A,Casa Tua,51,"[{'alias': 'coffee', 'title': 'Coffee & Tea'}, {'alias': 'italian', 'title': 'Italian'}, {'alias': 'breakfast_brunch', 'title': 'Breakfast & Brunch'}]",4.5,218,51.5276449011142,-0.123588235886524,4c4028fef9930764b34cc63c411cd29f
kDw0RC24G3714nPXq34q2Q,Wellcome Collection,94,"[{'alias': 'museums', 'title': 'Museums'}]",4.5,557,51.5260571,-0.1340295,4c4028fef9930764b34cc63c411cd29f
FXSGVcfBDYytOHHyLsoCCg,Albertini Restaurant,59,"[{'alias': 'pizza', 'title': 'Pizza'}, {'alias': 'italian', 'title': 'Italian'}, {'alias': 'seafood', 'title': 'Seafood'}]",4.5,345,51.5290298461914,-0.129214003682137,4c4028fef9930764b34cc63c411cd29f
q6KDb7nOXgQa5GTWBaCoCQ,Ciao Bella,138,"[{'alias': 'italian', 'title': 'Italian'}, {'alias': 'wine_bars', 'title': 'Wine Bars'}]",4.0,587,51.5232425139546,-0.119118084823987,4c4028fef9930764b34cc63c411cd29f
aTjIuf-lCWF6vGYDlQTPSg,Honest Burgers Kings Cross,112,"[{'alias': 'burgers', 'title': 'Burgers'}]",4.5,694,51.5308718,-0.119039104215517,4c4028fef9930764b34cc63c411cd29f
tHKiDGayBq4RD0oL-DutCg,Bloomsbury Coffee House,61,"[{'alias': 'coffee', 'title': 'Coffee & Tea'}, {'alias': 'cafes', 'title': 'Cafes'}]",4.0,126,51.525250540481,-0.126389201213277,4c4028fef9930764b34cc63c411cd29f
WJThPvvsOuuIK_9ad2QRIg,Roti King,109,"[{'alias': 'indpak', 'title': 'Indian'}, {'alias': 'asianfusion', 'title': 'Asian Fusion'}, {'alias': 'singaporean', 'title': 'Singaporean'}]",4.0,523,51.5291481,-0.1320656,4c4028fef9930764b34cc63c411cd29f
LyXXTUzll212_JKMkzC3DQ,49 Cafe,43,"[{'alias': 'modern_european', 'title': 'Modern European'}, {'alias': 'british', 'title': 'British'}, {'alias': 'cafes', 'title': 'Cafes'}]",4.5,165,51.5249587,-0.1251605,4c4028fef9930764b34cc63c411cd29f
wh4R2zTxcjZw4JcQFNBtog,Aux Pains de Papy,33,"[{'alias': 'bakeries', 'title': 'Bakeries'}]",5.0,532,51.5273865,-0.1184675,4c4028fef9930764b34cc63c411cd29f
Zc0HW9Q1HAXNkiiyh9G_Lw,Abeno,114,"[{'alias': 'japanese', 'title': 'Japanese'}]",4.5,981,51.5175591,-0.125158,4c4028fef9930764b34cc63c411cd29f
8gqkjHd2E7PHYWNfw0DVvg,Burger and Shake,59,"[{'alias': 'burgers', 'title': 'Burgers'}]",4.0,171,51.525005,-0.125415,4c4028fef9930764b34cc63c411cd29f
1TgYqfxkXv6-IB4cvuuy3w,Tea and Tattle,89,"[{'alias': 'british', 'title': 'British'}, {'alias': 'coffee', 'title': 'Coffee & Tea'}]",4.5,948,51.5178680419922,-0.126817002892494,4c4028fef9930764b34cc63c411cd29f
lJ5q7EkXvKtku0aUgsTrAw,The Harrison,57,"[{'alias': 'gastropubs', 'title': 'Gastropubs'}, {'alias': 'british', 'title': 'British'}, {'alias': 'bedbreakfast', 'title': 'Bed & Breakfast'}]",4.0,394,51.527533751588,-0.1206015435123,4c4028fef9930764b34cc63c411cd29f
CQsUI0K8XOAwSR4gN6l55Q,Pizza Union,73,"[{'alias': 'pizza', 'title': 'Pizza'}]",4.5,673,51.531051655444,-0.11983242244974,4c4028fef9930764b34cc63c411cd29f
6XX-pQkWThToOPKiWdrfoQ,Bloomsbury Bowling Lanes,83,"[{'alias': 'bowling', 'title': 'Bowling'}, {'alias': 'karaoke', 'title': 'Karaoke'}, {'alias': 'bars', 'title': 'Bars'}]",4.0,313,51.523967,-0.128385,4c4028fef9930764b34cc63c411cd29f
gDP6gDHQGKFry_IkHOGflA,Hare & Tortoise,111,"[{'alias': 'chinese', 'title': 'Chinese'}, {'alias': 'japanese', 'title': 'Japanese'}]",3.5,350,51.5238573117279,-0.122894760945433,4c4028fef9930764b34cc63c411cd29f
oMHEzgfHoufuS8xruS3GHg,Skinners Arms,32,"[{'alias': 'pubs', 'title': 'Pubs'}]",4.5,217,51.5282238,-0.1251041,4c4028fef9930764b34cc63c411cd29f
oK_SLmmAVQg3meguh7LrIA,Dishoom,2215,"[{'alias': 'indpak', 'title': 'Indian'}]",4.5,417,51.512447030091,-0.1269579217873,55f4dfcaf7fe3970b8722067a12b2f7f
YRA2VnhFLChIh1ZD31cXjg,The British Museum,1087,"[{'alias': 'museums', 'title': 'Museums'}]",4.5,472,51.518298,-0.126026,55f4dfcaf7fe3970b8722067a12b2f7f
lMVdwKmsxLgqczUXXfgqGg,Punjab Restaurant,584,"[{'alias': 'indpak', 'title': 'Indian'}, {'alias': 'vegetarian', 'title': 'Vegetarian'}]",4.0,259,51.514992,-0.12596,55f4dfcaf7fe3970b8722067a12b2f7f
0B-ag3J18TatG9H9EQohGg,Hawksmoor Seven Dials,372,"[{'alias': 'british', 'title': 'British'}, {'alias': 'steak', 'title': 'Steakhouses'}, {'alias': 'cocktailbars', 'title': 'Cocktail Bars'}]",4.5,277,51.5134998914001,-0.12567396291297,55f4dfcaf7fe3970b8722067a12b2f7f
ElxBJGffVB-jV1kMCG9PbQ,The National Gallery,491,"[{'alias': 'artmuseums', 'title': 'Art Museums'}]",4.5,774,51.508929,-0.128302,55f4dfcaf7fe3970b8722067a12b2f7f
Opa8XUwUghxbGFafvubV6A,Monmouth Coffee,323,"[{'alias': 'coffee', 'title': 'Coffee & Tea'}]",4.5,328,51.5143539,-0.1269168,55f4dfcaf7fe3970b8722067a12b2f7f
vzJaHABdXQ154saZvQHzPg,Flat Iron,213,"[{'alias': 'steak', 'title': 'Steakhouses'}]",4.5,456,51.5108326561998,-0.124100585093387,55f4dfcaf7fe3970b8722067a12b2f7f
3AqrHgpIbcMXj0q-p_oPzg,Homeslice Neal's Yard,256,"[{'alias': 'pizza', 'title': 'Pizza'}]",4.5,293,51.5144380966574,-0.126426543278564,55f4dfcaf7fe3970b8722067a12b2f7f
KGfryNuNH5mqYddLll9QCw,Gordon's Wine Bar,431,"[{'alias': 'wine_bars', 'title': 'Wine Bars'}]",4.5,763,51.5079411426091,-0.123381614685059,55f4dfcaf7fe3970b8722067a12b2f7f
ggwDV5tRXMfQJvH2-yZVug,The Barbary,85,"[{'alias': 'mideastern', 'title': 'Middle Eastern'}, {'alias': 'mediterranean', 'title': 'Mediterranean'}]",5.0,280,51.5144480132327,-0.126241173962971,55f4dfcaf7fe3970b8722067a12b2f7f
4ibHPLYd299_m1LOdcqxXw,Savoir Faire,212,"[{'alias': 'french', 'title': 'French'}]",4.5,364,51.5171949,-0.1260125,55f4dfcaf7fe3970b8722067a12b2f7f
Odvs0d73SgqDiOQVPNi0dQ,Kanada-Ya,183,"[{'alias': 'ramen', 'title': 'Ramen'}]",4.5,381,51.51555,-0.127588,55f4dfcaf7fe3970b8722067a12b2f7f
vt3Klo2UTjlvQD4AvU7d2A,Ben's Cookies,160,"[{'alias': 'bakeries', 'title': 'Bakeries'}, {'alias': 'desserts', 'title': 'Desserts'}]",4.5,286,51.5122,-0.122449,55f4dfcaf7fe3970b8722067a12b2f7f
pdFiFtol9YI__9ROOXUIYA,Lanzhou Noodle Bar,380,"[{'alias': 'chinese', 'title': 'Chinese'}, {'alias': 'noodles', 'title': 'Noodles'}]",4.0,530,51.511502,-0.127805,55f4dfcaf7fe3970b8722067a12b2f7f
zdyKTWY6jDasd6Q8BEJdAw,Honest Burgers Meard St - Soho,301,"[{'alias': 'burgers', 'title': 'Burgers'}]",4.5,753,51.5134184063764,-0.132883885733008,55f4dfcaf7fe3970b8722067a12b2f7f
lCgHefM1jTt9l71KbjxO8g,Rock & Sole Plaice,349,"[{'alias': 'fishnchips', 'title': 'Fish & Chips'}]",3.5,202,51.5148451460403,-0.125147514045238,55f4dfcaf7fe3970b8722067a12b2f7f
H-l4CDhIZ0uTfyv_lR1p7Q,Belgo Centraal,321,"[{'alias': 'belgian', 'title': 'Belgian'}]",4.0,261,51.5137833644188,-0.125649969207333,55f4dfcaf7fe3970b8722067a12b2f7f
LVtracBONt-BsZ4Vr8_z_g,Barrafina,69,"[{'alias': 'spanish', 'title': 'Spanish'}, {'alias': 'tapas', 'title': 'Tapas Bars'}]",4.5,53,51.5143394,-0.1219044,55f4dfcaf7fe3970b8722067a12b2f7f
ztuEuIDjVTJMklB2OP3rpg,TY Seven Dials - Timberyard,140,"[{'alias': 'coffee', 'title': 'Coffee & Tea'}]",4.5,411,51.5128577362728,-0.127308054907987,55f4dfcaf7fe3970b8722067a12b2f7f
ECyM2jq83wTVQrf9CEI01A,Burger & Lobster,315,"[{'alias': 'seafood', 'title': 'Seafood'}, {'alias': 'burgers', 'title': 'Burgers'}]",4.0,703,51.5135487,-0.1322316,55f4dfcaf7fe3970b8722067a12b2f7f
YRA2VnhFLChIh1ZD31cXjg,The British Museum,1087,"[{'alias': 'museums', 'title': 'Museums'}]",4.5,830,51.518298,-0.126026,ebe16a8a0722ff26b583e2bda9cd1af4
kDw0RC24G3714nPXq34q2Q,Wellcome Collection,94,"[{'alias': 'museums', 'title': 'Museums'}]",4.5,227,51.5260571,-0.1340295,ebe16a8a0722ff26b583e2bda9cd1af4
r34qKF45zXSpYqTXnhq4RA,North Sea Fish Restaurant,180,"[{'alias': 'seafood', 'title': 'Seafood'}, {'alias': 'fishnchips', 'title': 'Fish & Chips'}]",4.0,434,51.526474,-0.125051,ebe16a8a0722ff26b583e2bda9cd1af4
4ibHPLYd299_m1LOdcqxXw,Savoir Faire,212,"[{'alias': 'french', 'title': 'French'}]",4.5,950,51.5171949,-0.1260125,ebe16a8a0722ff26b583e2bda9cd1af4
mvds37L7mCurGn3rGPM8ag,Kaffeine,181,"[{'alias': 'coffee', 'title': 'Coffee & Tea'}]",4.5,972,51.51848,-0.14037,ebe16a8a0722ff26b583e2bda9cd1af4
Rb3xF0gkAwnDHML6okB1FA,Honey & Co,116,"[{'alias': 'mideastern', 'title': 'Middle Eastern'}]",4.5,679,51.5238287,-0.1407882,ebe16a8a0722ff26b583e2bda9cd1af4
FXSGVcfBDYytOHHyLsoCCg,Albertini Restaurant,59,"[{'alias': 'pizza', 'title': 'Pizza'}, {'alias': 'italian', 'title': 'Italian'}, {'alias': 'seafood', 'title': 'Seafood'}]",4.5,447,51.5290298461914,-0.129214003682137,ebe16a8a0722ff26b583e2bda9cd1af4
WJThPvvsOuuIK_9ad2QRIg,Roti King,109,"[{'alias': 'indpak', 'title': 'Indian'}, {'alias': 'asianfusion', 'title': 'Asian Fusion'}, {'alias': 'singaporean', 'title': 'Singaporean'}]",4.0,459,51.5291481,-0.1320656,ebe16a8a0722ff26b583e2bda9cd1af4
bVSdbV-LXvyxik6F7u4KXQ,The Marquis Cornwallis,113,"[{'alias': 'pubs', 'title': 'Pubs'}, {'alias': 'british', 'title': 'British'}]",4.0,427,51.524567356394,-0.12502513122867,ebe16a8a0722ff26b583e2bda9cd1af4
Zc0HW9Q1HAXNkiiyh9G_Lw,Abeno,114,"[{'alias': 'japanese', 'title': 'Japanese'}]",4.5,930,51.5175591,-0.125158,ebe16a8a0722ff26b583e2bda9cd1af4
kB4ubRof__n7O0n15HEYUw,Franco Manca,85,"[{'alias': 'pizza', 'title': 'Pizza'}]",4.0,463,51.5223323133774,-0.13623491712724,ebe16a8a0722ff26b583e2bda9cd1af4
ZKfiQaOMDu7rfVhmMmQ0bQ,Berners Tavern,128,"[{'alias': 'british', 'title': 'British'}, {'alias': 'pubs', 'title': 'Pubs'}]",4.5,981,51.5167515074354,-0.135977268218994,ebe16a8a0722ff26b583e2bda9cd1af4
bz-YqeJaLeQCP85S6e0pig,Roka,141,"[{'alias': 'japanese', 'title': 'Japanese'}, {'alias': 'seafood', 'title': 'Seafood'}]",4.0,736,51.5189741386939,-0.135395835697745,ebe16a8a0722ff26b583e2bda9cd1af4
XeAaUJWcS9RZsE80a1UxjA,Mestizo,162,"[{'alias': 'mexican', 'title': 'Mexican'}, {'alias': 'bars', 'title': 'Bars'}]",4.0,608,51.52752,-0.1387649,ebe16a8a0722ff26b583e2bda9cd1af4
d28OFF6NbzsRC8SKDF95Ig,Kitchen Table,38,"[{'alias': 'tradamerican', 'title': 'American (Traditional)'}, {'alias': 'modern_european', 'title': 'Modern European'}]",4.5,630,51.520415,-0.136485,ebe16a8a0722ff26b583e2bda9cd1af4
8jNOl4h8Z6iibXxY6Tx3vQ,ICCo,151,"[{'alias': 'pizza', 'title': 'Pizza'}, {'alias': 'italian', 'title': 'Italian'}]",4.0,699,51.519545,-0.136045,ebe16a8a0722ff26b583e2bda9cd1af4
1TgYqfxkXv6-IB4cvuuy3w,Tea and Tattle,89,"[{'alias': 'british', 'title': 'British'}, {'alias': 'coffee', 'title': 'Coffee & Tea'}]",4.5,855,51.5178680419922,-0.126817002892494,ebe16a8a0722ff26b583e2bda9cd1af4
q6KDb7nOXgQa5GTWBaCoCQ,Ciao Bella,138,"[{'alias': 'italian', 'title': 'Italian'}, {'alias': 'wine_bars', 'title': 'Wine Bars'}]",4.0,857,51.5232425139546,-0.119118084823987,ebe16a8a0722ff26b583e2bda9cd1af4
eNhwKJGzpgtziHJ_i9xrzg,Fish Bone,87,"[{'alias': 'fishnchips', 'title': 'Fish & Chips'}, {'alias': 'british', 'title': 'British'}, {'alias': 'seafood', 'title': 'Seafood'}]",4.5,723,51.522088,-0.140496,ebe16a8a0722ff26b583e2bda9cd1af4
E_3NekwxctQ3BzN7tLKk2A,Casa Tua,51,"[{'alias': 'coffee', 'title': 'Coffee & Tea'}, {'alias': 'italian', 'title': 'Italian'}, {'alias': 'breakfast_brunch', 'title': 'Breakfast & Brunch'}]",4.5,598,51.5276449011142,-0.123588235886524,ebe16a8a0722ff26b583e2bda9cd1af4
YRA2VnhFLChIh1ZD31cXjg,The British Museum,1087,"[{'alias': 'museums', 'title': 'Museums'}]",4.5,1220,51.518298,-0.126026,d68d55f9fc5a6ecc846d4e51d9bab5bd
kDw0RC24G3714nPXq34q2Q,Wellcome Collection,94,"[{'alias': 'museums', 'title': 'Museums'}]",4.5,198,51.5260571,-0.1340295,d68d55f9fc5a6ecc846d4e51d9bab5bd
R1UKQHTz65dQKkdLjzVEBg,Dishoom,451,"[{'alias': 'indpak', 'title': 'Indian'}, {'alias': 'breakfast_brunch', 'title': 'Breakfast & Brunch'}]",4.5,1252,51.5363182978271,-0.125145272091882,d68d55f9fc5a6ecc846d4e51d9bab5bd
XeAaUJWcS9RZsE80a1UxjA,Mestizo,162,"[{'alias': 'mexican', 'title': 'Mexican'}, {'alias': 'bars', 'title': 'Bars'}]",4.0,201,51.52752,-0.1387649,d68d55f9fc5a6ecc846d4e51d9bab5bd
Rb3xF0gkAwnDHML6okB1FA,Honey & Co,116,"[{'alias': 'mideastern', 'title': 'Middle Eastern'}]",4.5,508,51.5238287,-0.1407882,d68d55f9fc5a6ecc846d4e51d9bab5bd
WJThPvvsOuuIK_9ad2QRIg,Roti King,109,"[{'alias': 'indpak', 'title': 'Indian'}, {'alias': 'asianfusion', 'title': 'Asian Fusion'}, {'alias': 'singaporean', 'title': 'Singaporean'}]",4.0,342,51.5291481,-0.1320656,d68d55f9fc5a6ecc846d4e51d9bab5bd
mvds37L7mCurGn3rGPM8ag,Kaffeine,181,"[{'alias': 'coffee', 'title': 'Coffee & Tea'}]",4.5,1031,51.51848,-0.14037,d68d55f9fc5a6ecc846d4e51d9bab5bd
FXSGVcfBDYytOHHyLsoCCg,Albertini Restaurant,59,"[{'alias': 'pizza', 'title': 'Pizza'}, {'alias': 'italian', 'title': 'Italian'}, {'alias': 'seafood', 'title': 'Seafood'}]",4.5,517,51.5290298461914,-0.129214003682137,d68d55f9fc5a6ecc846d4e51d9bab5bd
r34qKF45zXSpYqTXnhq4RA,North Sea Fish Restaurant,180,"[{'alias': 'seafood', 'title': 'Seafood'}, {'alias': 'fishnchips', 'title': 'Fish & Chips'}]",4.0,754,51.526474,-0.125051,d68d55f9fc5a6ecc846d4e51d9bab5bd
eNhwKJGzpgtziHJ_i9xrzg,Fish Bone,87,"[{'alias': 'fishnchips', 'title': 'Fish & Chips'}, {'alias': 'british', 'title': 'British'}, {'alias': 'seafood', 'title': 'Seafood'}]",4.5,657,51.522088,-0.140496,d68d55f9fc5a6ecc846d4e51d9bab5bd
F_uxkbhoEOvI_LBa50VsJQ,Diwana Bhel Poori House,90,"[{'alias': 'indpak', 'title': 'Indian'}]",3.5,43,51.5270912,-0.1363756,d68d55f9fc5a6ecc846d4e51d9bab5bd
kB4ubRof__n7O0n15HEYUw,Franco Manca,85,"[{'alias': 'pizza', 'title': 'Pizza'}]",4.0,555,51.5223323133774,-0.13623491712724,d68d55f9fc5a6ecc846d4e51d9bab5bd
qTbw0h1c3XKUBfnI1t_Alw,Shah Tandoori,28,"[{'alias': 'indpak', 'title': 'Indian'}]",4.5,172,51.526543,-0.13785,d68d55f9fc5a6ecc846d4e51d9bab5bd
d28OFF6NbzsRC8SKDF95Ig,Kitchen Table,38,"[{'alias': 'tradamerican', 'title': 'American (Traditional)'}, {'alias': 'modern_european', 'title': 'Modern European'}]",4.5,768,51.520415,-0.136485,d68d55f9fc5a6ecc846d4e51d9bab5bd
bz-YqeJaLeQCP85S6e0pig,Roka,141,"[{'alias': 'japanese', 'title': 'Japanese'}, {'alias': 'seafood', 'title': 'Seafood'}]",4.0,929,51.5189741386939,-0.135395835697745,d68d55f9fc5a6ecc846d4e51d9bab5bd
8jNOl4h8Z6iibXxY6Tx3vQ,ICCo,151,"[{'alias': 'pizza', 'title': 'Pizza'}, {'alias': 'italian', 'title': 'Italian'}]",4.0,865,51.519545,-0.136045,d68d55f9fc5a6ecc846d4e51d9bab5bd
PYwzVOvFIjwCMNYV5upPwg,The Attendant,80,"[{'alias': 'coffee', 'title': 'Coffee & Tea'}, {'alias': 'cafes', 'title': 'Cafes'}]",4.5,955,51.5192470995905,-0.140738025145255,d68d55f9fc5a6ecc846d4e51d9bab5bd
B6ayHXLwfYBuIADficAeMg,Caravan Kings Cross,180,"[{'alias': 'breakfast_brunch', 'title': 'Breakfast & Brunch'}, {'alias': 'tapas', 'title': 'Tapas Bars'}]",4.0,1195,51.5357788239146,-0.125370576153865,d68d55f9fc5a6ecc846d4e51d9bab5bd
bVSdbV-LXvyxik6F7u4KXQ,The Marquis Cornwallis,113,"[{'alias': 'pubs', 'title': 'Pubs'}, {'alias': 'british', 'title': 'British'}]",4.0,822,51.524567356394,-0.12502513122867,d68d55f9fc5a6ecc846d4e51d9bab5bd
E_3NekwxctQ3BzN7tLKk2A,Casa Tua,51,"[{'alias': 'coffee', 'title': 'Coffee & Tea'}, {'alias': 'italian', 'title': 'Italian'}, {'alias': 'breakfast_brunch', 'title': 'Breakfast & Brunch'}]",4.5,863,51.5276449011142,-0.123588235886524,d68d55f9fc5a6ecc846d4e51d9bab5bd
YRA2VnhFLChIh1ZD31cXjg,The British Museum,1087,"[{'alias': 'museums', 'title': 'Museums'}]",4.5,1133,51.518298,-0.126026,0c01f449802222cdd504c8eafa0322a4
R1UKQHTz65dQKkdLjzVEBg,Dishoom,451,"[{'alias': 'indpak', 'title': 'Indian'}, {'alias': 'breakfast_brunch', 'title': 'Breakfast & Brunch'}]",4.5,1111,51.5363182978271,-0.125145272091882,0c01f449802222cdd504c8eafa0322a4
wh4R2zTxcjZw4JcQFNBtog,Aux Pains de Papy,33,"[{'alias': 'bakeries', 'title': 'Bakeries'}]",5.0,16,51.5273865,-0.1184675,0c01f449802222cdd504c8eafa0322a4
aTjIuf-lCWF6vGYDlQTPSg,Honest Burgers Kings Cross,112,"[{'alias': 'burgers', 'title': 'Burgers'}]",4.5,402,51.5308718,-0.119039104215517,0c01f449802222cdd504c8eafa0322a4
q6KDb7nOXgQa5GTWBaCoCQ,Ciao Bella,138,"[{'alias': 'italian', 'title': 'Italian'}, {'alias': 'wine_bars', 'title': 'Wine Bars'}]",4.0,452,51.5232425139546,-0.119118084823987,0c01f449802222cdd504c8eafa0322a4
r34qKF45zXSpYqTXnhq4RA,North Sea Fish Restaurant,180,"[{'alias': 'seafood', 'title': 'Seafood'}, {'alias': 'fishnchips', 'title': 'Fish & Chips'}]",4.0,491,51.526474,-0.125051,0c01f449802222cdd504c8eafa0322a4
Bc4GZfIUJu9363QQVACZVA,Caravan,151,"[{'alias': 'breakfast_brunch', 'title': 'Breakfast & Brunch'}, {'alias': 'cocktailbars', 'title': 'Cocktail Bars'}]",4.0,600,51.5254718215956,-0.110122750616417,0c01f449802222cdd504c8eafa0322a4
E_3NekwxctQ3BzN7tLKk2A,Casa Tua,51,"[{'alias': 'coffee', 'title': 'Coffee & Tea'}, {'alias': 'italian', 'title': 'Italian'}, {'alias': 'breakfast_brunch', 'title': 'Breakfast & Brunch'}]",4.5,368,51.5276449011142,-0.123588235886524,0c01f449802222cdd504c8eafa0322a4
lJ5q7EkXvKtku0aUgsTrAw,The Harrison,57,"[{'alias': 'gastropubs', 'title': 'Gastropubs'}, {'alias': 'british', 'title': 'British'}, {'alias': 'bedbreakfast', 'title': 'Bed & Breakfast'}]",4.0,162,51.527533751588,-0.1206015435123,0c01f449802222cdd504c8eafa0322a4
CQsUI0K8XOAwSR4gN6l55Q,Pizza Union,73,"[{'alias': 'pizza', 'title': 'Pizza'}]",4.5,432,51.531051655444,-0.11983242244974,0c01f449802222cdd504c8eafa0322a4
5ctdM8Aiw1K9M6vZ2jUTeA,Sen Viet,71,"[{'alias': 'vietnamese', 'title': 'Vietnamese'}]",4.0,262,51.529089,-0.1159522,0c01f449802222cdd504c8eafa0322a4
bVSdbV-LXvyxik6F7u4KXQ,The Marquis Cornwallis,113,"[{'alias': 'pubs', 'title': 'Pubs'}, {'alias': 'british', 'title': 'British'}]",4.0,554,51.524567356394,-0.12502513122867,0c01f449802222cdd504c8eafa0322a4
B6ayHXLwfYBuIADficAeMg,Caravan Kings Cross,180,"[{'alias': 'breakfast_brunch', 'title': 'Breakfast & Brunch'}, {'alias': 'tapas', 'title': 'Tapas Bars'}]",4.0,1064,51.5357788239146,-0.125370576153865,0c01f449802222cdd504c8eafa0322a4
FXSGVcfBDYytOHHyLsoCCg,Albertini Restaurant,59,"[{'alias': 'pizza', 'title': 'Pizza'}, {'alias': 'italian', 'title': 'Italian'}, {'alias': 'seafood', 'title': 'Seafood'}]",4.5,758,51.5290298461914,-0.129214003682137,0c01f449802222cdd504c8eafa0322a4
hWJYKoBLzeQ6STpTp6FoYw,Paolina's Thai Cafe,49,"[{'alias': 'coffee', 'title': 'Coffee & Tea'}, {'alias': 'thai', 'title': 'Thai'}]",4.5,363,51.530469,-0.118457,0c01f449802222cdd504c8eafa0322a4
wqivobEKWlS62j0nq6khIQ,Salaam Namaste,65,"[{'alias': 'indpak', 'title': 'Indian'}, {'alias': 'pakistani', 'title': 'Pakistani'}, {'alias': 'asianfusion', 'title': 'Asian Fusion'}]",4.0,405,51.5236422,-0.1179336,0c01f449802222cdd504c8eafa0322a4
E2GbtvuTVKo23qJeyqc82w,Ngon Ngon,62,"[{'alias': 'vietnamese', 'title': 'Vietnamese'}, {'alias': 'noodles', 'title': 'Noodles'}]",4.5,821,51.5221634,-0.1097323,0c01f449802222cdd504c8eafa0322a4
1lPSja-BUNRJWoBRn9oV7w,"Drink, Shop & Do",70,"[{'alias': 'bars', 'title': 'Bars'}, {'alias': 'danceclubs', 'title': 'Dance Clubs'}, {'alias': 'venues', 'title': 'Venues & Event Spaces'}]",4.0,492,51.531336,-0.121145,0c01f449802222cdd504c8eafa0322a4
KRS7yBZBFT80iA86ahtQ-g,Santore,63,"[{'alias': 'italian', 'title': 'Italian'}]",4.5,685,51.5262783740002,-0.108517492582082,0c01f449802222cdd504c8eafa0322a4
LyXXTUzll212_JKMkzC3DQ,49 Cafe,43,"[{'alias': 'modern_european', 'title': 'Modern European'}, {'alias': 'british', 'title': 'British'}, {'alias': 'cafes', 'title': 'Cafes'}]",4.5,540,51.5249587,-0.1251605,0c01f449802222cdd504c8eafa0322a4
Rb3xF0gkAwnDHML6okB1FA,Honey & Co,116,"[{'alias': 'mideastern', 'title': 'Middle Eastern'}]",4.5,198,51.5238287,-0.1407882,d72f1e4f9fcc28128a22a35b05589049
mvds37L7mCurGn3rGPM8ag,Kaffeine,181,"[{'alias': 'coffee', 'title': 'Coffee & Tea'}]",4.5,606,51.51848,-0.14037,d72f1e4f9fcc28128a22a35b05589049
JSXnB6RipjQdQOXoh9IGgA,The Regent's Park,211,"[{'alias': 'parks', 'title': 'Parks'}]",4.5,985,51.5282902069734,-0.155611038208008,d72f1e4f9fcc28128a22a35b05589049
odnKjwTrgHDlgw0l43eKFA,The Golden Hind,262,"[{'alias': 'fishnchips', 'title': 'Fish & Chips'}]",4.0,797,51.5180015563965,-0.151026993989944,d72f1e4f9fcc28128a22a35b05589049
eNhwKJGzpgtziHJ_i9xrzg,Fish Bone,87,"[{'alias': 'fishnchips', 'title': 'Fish & Chips'}, {'alias': 'british', 'title': 'British'}, {'alias': 'seafood', 'title': 'Seafood'}]",4.5,267,51.522088,-0.140496,d72f1e4f9fcc28128a22a35b05589049
LSvWWKNJi4-gaaRDU-VVYA,Golden Union Fish Bar,315,"[{'alias': 'fishnchips', 'title': 'Fish & Chips'}]",4.0,998,51.5153383,-0.1376925,d72f1e4f9fcc28128a22a35b05589049
iJPlkSdTPp1I3vHf00rk5Q,Iberica,78,"[{'alias': 'wine_bars', 'title': 'Wine Bars'}, {'alias': 'spanish', 'title': 'Spanish'}, {'alias': 'tapasmallplates', 'title': 'Tapas/Small Plates'}]",4.0,118,51.522476,-0.143939,d72f1e4f9fcc28128a22a35b05589049
tYynO1nOy1GKxMV3jkxbmw,The Breakfast Club,551,"[{'alias': 'coffee', 'title': 'Coffee & Tea'}, {'alias': 'breakfast_brunch', 'title': 'Breakfast & Brunch'}, {'alias': 'tradamerican', 'title': 'American (Traditional)'}]",4.0,1132,51.514733,-0.135406,d72f1e4f9fcc28128a22a35b05589049
PYwzVOvFIjwCMNYV5upPwg,The Attendant,80,"[{'alias': 'coffee', 'title': 'Coffee & Tea'}, {'alias': 'cafes', 'title': 'Cafes'}]",4.5,514,51.5192470995905,-0.140738025145255,d72f1e4f9fcc28128a22a35b05589049
cV9dn2Db9xzd4YnnEmMLnQ,Le Relais de Venise L'Entrec√¥te,195,"[{'alias': 'french', 'title': 'French'}, {'alias': 'steak', 'title': 'Steakhouses'}]",4.0,783,51.518264,-0.151117,d72f1e4f9fcc28128a22a35b05589049
hF7L2L1pcPqNrE0js9xMDw,The Wallace Collection,118,"[{'alias': 'museums', 'title': 'Museums'}, {'alias': 'galleries', 'title': 'Art Galleries'}, {'alias': 'venues', 'title': 'Venues & Event Spaces'}]",4.5,939,51.5174316756205,-0.153022552114862,d72f1e4f9fcc28128a22a35b05589049
Y775ayDb-qviW7Ys_uzxEQ,Patty & Bun,197,"[{'alias': 'burgers', 'title': 'Burgers'}]",4.5,991,51.515786,-0.150785,d72f1e4f9fcc28128a22a35b05589049
kDw0RC24G3714nPXq34q2Q,Wellcome Collection,94,"[{'alias': 'museums', 'title': 'Museums'}]",4.5,720,51.5260571,-0.1340295,d72f1e4f9fcc28128a22a35b05589049
aoMC0Tr_pBbYuUeafqVVYQ,Artesian,76,"[{'alias': 'lounges', 'title': 'Lounges'}]",4.5,626,51.5178898198077,-0.143916606903076,d72f1e4f9fcc28128a22a35b05589049
ZKfiQaOMDu7rfVhmMmQ0bQ,Berners Tavern,128,"[{'alias': 'british', 'title': 'British'}, {'alias': 'pubs', 'title': 'Pubs'}]",4.5,919,51.5167515074354,-0.135977268218994,d72f1e4f9fcc28128a22a35b05589049
skSR93eUT6KuFnDI4ksxUw,The Rajdoot,104,"[{'alias': 'indpak', 'title': 'Indian'}]",4.5,752,51.5205999,-0.153431,d72f1e4f9fcc28128a22a35b05589049
XeAaUJWcS9RZsE80a1UxjA,Mestizo,162,"[{'alias': 'mexican', 'title': 'Mexican'}, {'alias': 'bars', 'title': 'Bars'}]",4.0,559,51.52752,-0.1387649,d72f1e4f9fcc28128a22a35b05589049
annFT8pEr7pjqCfQXKY9dw,Madame Tussaud's,323,"[{'alias': 'museums', 'title': 'Museums'}]",3.5,788,51.522895,-0.154968,d72f1e4f9fcc28128a22a35b05589049
d28OFF6NbzsRC8SKDF95Ig,Kitchen Table,38,"[{'alias': 'tradamerican', 'title': 'American (Traditional)'}, {'alias': 'modern_european', 'title': 'Modern European'}]",4.5,604,51.520415,-0.136485,d72f1e4f9fcc28128a22a35b05589049
bz-YqeJaLeQCP85S6e0pig,Roka,141,"[{'alias': 'japanese', 'title': 'Japanese'}, {'alias': 'seafood', 'title': 'Seafood'}]",4.0,760,51.5189741386939,-0.135395835697745,d72f1e4f9fcc28128a22a35b05589049
emdb4ELhKKQXpJ0lIOdg0w,Nightjar,186,"[{'alias': 'lounges', 'title': 'Lounges'}, {'alias': 'cocktailbars', 'title': 'Cocktail Bars'}]",4.5,490,51.5265350341797,-0.0877109989523888,ad43baa18c9dbea9ba4b0966c386cc0c
68gc1BAE1IT_zZghFafw0Q,Ozone Coffee,193,"[{'alias': 'coffee', 'title': 'Coffee & Tea'}, {'alias': 'breakfast_brunch', 'title': 'Breakfast & Brunch'}]",4.5,681,51.524683689256,-0.086674106560876,ad43baa18c9dbea9ba4b0966c386cc0c
-ylzTrYtRJUJa2BuAInoyQ,Friends of Ours,96,"[{'alias': 'cafes', 'title': 'Cafes'}]",4.5,669,51.5291189,-0.0836995,ad43baa18c9dbea9ba4b0966c386cc0c
PrIqHQtsQl-DnafTdS326A,Whitecross Market,73,"[{'alias': 'streetvendors', 'title': 'Street Vendors'}]",4.5,704,51.5228285836074,-0.0927653379297215,ad43baa18c9dbea9ba4b0966c386cc0c
nwZeSFKD0dRqDM1H4pDy3w,Look Mum No Hands!,153,"[{'alias': 'bikes', 'title': 'Bikes'}, {'alias': 'cafes', 'title': 'Cafes'}, {'alias': 'bike_repair_maintenance', 'title': 'Bike Repair/Maintenance'}]",4.0,621,51.524013227609,-0.096938452042226,ad43baa18c9dbea9ba4b0966c386cc0c
SCdYgnZUaaQiCAUnfRxlsg,Happiness Forgets,111,"[{'alias': 'cocktailbars', 'title': 'Cocktail Bars'}]",4.5,830,51.52770282863,-0.0816464424133301,ad43baa18c9dbea9ba4b0966c386cc0c
S3h8uhI3wK2Fn4e9gw9bfA,Shoreditch Grind,118,"[{'alias': 'coffee', 'title': 'Coffee & Tea'}, {'alias': 'cocktailbars', 'title': 'Cocktail Bars'}, {'alias': 'breakfast_brunch', 'title': 'Breakfast & Brunch'}]",4.0,527,51.5258391235513,-0.0879659656067133,ad43baa18c9dbea9ba4b0966c386cc0c
P3YeWO3ODeWmQVi-IilkAQ,St John Bar and Restaurant,312,"[{'alias': 'british', 'title': 'British'}, {'alias': 'bars', 'title': 'Bars'}]",4.0,1114,51.520481,-0.101486,ad43baa18c9dbea9ba4b0966c386cc0c
3JWtDO-41MPJ-IM6a-jVmA,Old Fountain,46,"[{'alias': 'pubs', 'title': 'Pubs'}, {'alias': 'gastropubs', 'title': 'Gastropubs'}]",4.5,384,51.527072,-0.089101,ad43baa18c9dbea9ba4b0966c386cc0c
iDneZRtqN6dimKmcNQjVZA,The Clove Club,110,"[{'alias': 'british', 'title': 'British'}, {'alias': 'cocktailbars', 'title': 'Cocktail Bars'}]",4.5,1016,51.5270489,-0.0791196,ad43baa18c9dbea9ba4b0966c386cc0c
l8ImJIQnp1rDIlWJD23_wA,Fish Central,46,"[{'alias': 'seafood', 'title': 'Seafood'}]",4.5,310,51.527539,-0.097075,ad43baa18c9dbea9ba4b0966c386cc0c
ao-yAAnj8D_D9WI7qgLOow,The Breakfast Club,212,"[{'alias': 'breakfast_brunch', 'title': 'Breakfast & Brunch'}, {'alias': 'tradamerican', 'title': 'American (Traditional)'}, {'alias': 'coffee', 'title': 'Coffee & Tea'}]",3.5,884,51.5269878207578,-0.0811266326024151,ad43baa18c9dbea9ba4b0966c386cc0c
bgNNAcV-GYqPXkYcHmZNCg,Curious Yellow Kaf√©,64,"[{'alias': 'coffee', 'title': 'Coffee & Tea'}, {'alias': 'scandinavian', 'title': 'Scandinavian'}, {'alias': 'breakfast_brunch', 'title': 'Breakfast & Brunch'}]",4.5,666,51.52954503532,-0.0838136672973633,ad43baa18c9dbea9ba4b0966c386cc0c
REsQeOq673VB-zjbZFbnIQ,Meat Mission,108,"[{'alias': 'burgers', 'title': 'Burgers'}, {'alias': 'newamerican', 'title': 'American (New)'}]",4.0,785,51.5273008570266,-0.0824617613588274,ad43baa18c9dbea9ba4b0966c386cc0c
vvE5E6WcPkK6ZB3Ivkqiqg,Flat Iron,51,"[{'alias': 'steak', 'title': 'Steakhouses'}]",4.5,1007,51.5247221,-0.0804249,ad43baa18c9dbea9ba4b0966c386cc0c
t4IGyZgC1aNM9XUvkD5L_g,Callooh Callay,139,"[{'alias': 'cocktailbars', 'title': 'Cocktail Bars'}]",4.0,987,51.5263047,-0.0801422,ad43baa18c9dbea9ba4b0966c386cc0c
zOLPCLptUE2UKRXYWCEHvg,The Modern Pantry,148,"[{'alias': 'breakfast_brunch', 'title': 'Breakfast & Brunch'}, {'alias': 'modern_european', 'title': 'Modern European'}]",4.0,978,51.5230301121618,-0.103575187145258,ad43baa18c9dbea9ba4b0966c386cc0c
zKIAjpRUcwkBpWS9aY1o_A,C√¢y Tre,134,"[{'alias': 'vietnamese', 'title': 'Vietnamese'}]",3.5,845,51.526887,-0.081641,ad43baa18c9dbea9ba4b0966c386cc0c
tQLHS3esu_vLtkbdPYSY6A,On The Bab,96,"[{'alias': 'korean', 'title': 'Korean'}]",4.0,864,51.5267653903883,-0.0815281434501047,ad43baa18c9dbea9ba4b0966c386cc0c
h2dQU58SLEKzHnloz0FTuQ,Honest Burgers Old Street,31,"[{'alias': 'burgers', 'title': 'Burgers'}]",4.5,428,51.5266208,-0.0887512,ad43baa18c9dbea9ba4b0966c386cc0c
vlq4D26p_143Tj21OF-iMA,Dishoom,577,"[{'alias': 'indpak', 'title': 'Indian'}, {'alias': 'breakfast_brunch', 'title': 'Breakfast & Brunch'}]",4.5,543,51.5245310066818,-0.076594190862934,491db6b066ce2d6b406508a8ceeb060b
68gc1BAE1IT_zZghFafw0Q,Ozone Coffee,193,"[{'alias': 'coffee', 'title': 'Coffee & Tea'}, {'alias': 'breakfast_brunch', 'title': 'Breakfast & Brunch'}]",4.5,154,51.524683689256,-0.086674106560876,491db6b066ce2d6b406508a8ceeb060b
emdb4ELhKKQXpJ0lIOdg0w,Nightjar,186,"[{'alias': 'lounges', 'title': 'Lounges'}, {'alias': 'cocktailbars', 'title': 'Cocktail Bars'}]",4.5,305,51.5265350341797,-0.0877109989523888,491db6b066ce2d6b406508a8ceeb060b
CrQcYS4nWWdXmSD1pxf_KA,Beigel Bake,489,"[{'alias': 'bakeries', 'title': 'Bakeries'}, {'alias': 'bagels', 'title': 'Bagels'}]",4.0,880,51.524391,-0.071726,491db6b066ce2d6b406508a8ceeb060b
hOLFwKg4-0FsCleJ4yoCXw,Duck & Waffle,827,"[{'alias': 'modern_european', 'title': 'Modern European'}, {'alias': 'bars', 'title': 'Bars'}, {'alias': 'british', 'title': 'British'}]",4.0,977,51.516178,-0.08094,491db6b066ce2d6b406508a8ceeb060b
-ylzTrYtRJUJa2BuAInoyQ,Friends of Ours,96,"[{'alias': 'cafes', 'title': 'Cafes'}]",4.5,489,51.5291189,-0.0836995,491db6b066ce2d6b406508a8ceeb060b
SCdYgnZUaaQiCAUnfRxlsg,Happiness Forgets,111,"[{'alias': 'cocktailbars', 'title': 'Cocktail Bars'}]",4.5,386,51.52770282863,-0.0816464424133301,491db6b066ce2d6b406508a8ceeb060b
DI9SUiuxlf1WjkTu_jJSbg,Hawksmoor Spitalfields,177,"[{'alias': 'steak', 'title': 'Steakhouses'}, {'alias': 'british', 'title': 'British'}]",4.5,724,51.5211502,-0.075657,491db6b066ce2d6b406508a8ceeb060b
qF2RobL-4k6IYnS6hpqEyA,Poppies,374,"[{'alias': 'fishnchips', 'title': 'Fish & Chips'}, {'alias': 'hotdogs', 'title': 'Fast Food'}]",4.0,870,51.5202629,-0.074075,491db6b066ce2d6b406508a8ceeb060b
iDneZRtqN6dimKmcNQjVZA,The Clove Club,110,"[{'alias': 'british', 'title': 'British'}, {'alias': 'cocktailbars', 'title': 'Cocktail Bars'}]",4.5,451,51.5270489,-0.0791196,491db6b066ce2d6b406508a8ceeb060b
vvE5E6WcPkK6ZB3Ivkqiqg,Flat Iron,51,"[{'alias': 'steak', 'title': 'Steakhouses'}]",4.5,273,51.5247221,-0.0804249,491db6b066ce2d6b406508a8ceeb060b
PrIqHQtsQl-DnafTdS326A,Whitecross Market,73,"[{'alias': 'streetvendors', 'title': 'Street Vendors'}]",4.5,612,51.5228285836074,-0.0927653379297215,491db6b066ce2d6b406508a8ceeb060b
ao-yAAnj8D_D9WI7qgLOow,The Breakfast Club,212,"[{'alias': 'breakfast_brunch', 'title': 'Breakfast & Brunch'}, {'alias': 'tradamerican', 'title': 'American (Traditional)'}, {'alias': 'coffee', 'title': 'Coffee & Tea'}]",3.5,342,51.5269878207578,-0.0811266326024151,491db6b066ce2d6b406508a8ceeb060b
vCF8ut7OZcfA4hEmhngfSQ,Andina,148,"[{'alias': 'breakfast_brunch', 'title': 'Breakfast & Brunch'}, {'alias': 'peruvian', 'title': 'Peruvian'}]",4.0,507,51.5243208695971,-0.077134990126122,491db6b066ce2d6b406508a8ceeb060b
S3h8uhI3wK2Fn4e9gw9bfA,Shoreditch Grind,118,"[{'alias': 'coffee', 'title': 'Coffee & Tea'}, {'alias': 'cocktailbars', 'title': 'Cocktail Bars'}, {'alias': 'breakfast_brunch', 'title': 'Breakfast & Brunch'}]",4.0,275,51.5258391235513,-0.0879659656067133,491db6b066ce2d6b406508a8ceeb060b
t4IGyZgC1aNM9XUvkD5L_g,Callooh Callay,139,"[{'alias': 'cocktailbars', 'title': 'Cocktail Bars'}]",4.0,360,51.5263047,-0.0801422,491db6b066ce2d6b406508a8ceeb060b
UMJxTGTSShg2u1FFwZBWAQ,The Book Club,121,"[{'alias': 'venues', 'title': 'Venues & Event Spaces'}, {'alias': 'cafes', 'title': 'Cafes'}, {'alias': 'cocktailbars', 'title': 'Cocktail Bars'}]",4.0,195,51.5245401,-0.0815927,491db6b066ce2d6b406508a8ceeb060b
ZLPQlA8pLRvNQ1kDCVHmVQ,Pizza East,245,"[{'alias': 'pizza', 'title': 'Pizza'}, {'alias': 'desserts', 'title': 'Desserts'}, {'alias': 'breakfast_brunch', 'title': 'Breakfast & Brunch'}]",3.5,535,51.5240601,-0.0770451,491db6b066ce2d6b406508a8ceeb060b
KkcJrYaogWg5VvV3-HC_HQ,The Jones Family Project,62,"[{'alias': 'british', 'title': 'British'}, {'alias': 'bars', 'title': 'Bars'}]",4.0,163,51.5258201511173,-0.0829150037047839,491db6b066ce2d6b406508a8ceeb060b
REsQeOq673VB-zjbZFbnIQ,Meat Mission,108,"[{'alias': 'burgers', 'title': 'Burgers'}, {'alias': 'newamerican', 'title': 'American (New)'}]",4.0,320,51.5273008570266,-0.0824617613588274,491db6b066ce2d6b406508a8ceeb060b
x3a5aaaRt7wJkzrXfLG96Q,Dishoom - Kensington,253,"[{'alias': 'indpak', 'title': 'Indian'}, {'alias': 'breakfast_brunch', 'title': 'Breakfast & Brunch'}]",4.5,432,51.5012974019964,-0.191184893250465,2b52d72500bd4fb639ab9f79df7e3c78
70Q-Ll18zb4aglXXbUG7lw,Ffiona's Restaurant,295,"[{'alias': 'british', 'title': 'British'}]",4.5,598,51.50405773515,-0.192783395566043,2b52d72500bd4fb639ab9f79df7e3c78
7-luWfckJm0vLx9k6QTLEw,Victoria and Albert Museum,437,"[{'alias': 'artmuseums', 'title': 'Art Museums'}]",4.5,1080,51.4963940559606,-0.171935630295101,2b52d72500bd4fb639ab9f79df7e3c78
WrUXtYaSyvxvL9G4su58YQ,The Natural History Museum,481,"[{'alias': 'museums', 'title': 'Museums'}]",4.5,960,51.4961423561293,-0.174409105353236,2b52d72500bd4fb639ab9f79df7e3c78
dZU-PrfDwH3LnuW7XGWi0w,Zaika of Kensington,84,"[{'alias': 'indpak', 'title': 'Indian'}]",4.5,158,51.502166,-0.187171,2b52d72500bd4fb639ab9f79df7e3c78
ZfM-yM1OWk41l8RJNRMnvw,Da Mario Restaurant,171,"[{'alias': 'italian', 'title': 'Italian'}]",4.5,349,51.4987228161749,-0.183567237647306,2b52d72500bd4fb639ab9f79df7e3c78
5tAAwu7ZDhulLsyt09bXnw,Maggie Jones's,134,"[{'alias': 'british', 'title': 'British'}]",4.5,434,51.502856014927,-0.1909916674772,2b52d72500bd4fb639ab9f79df7e3c78
PBFvhVyBi0lEJyTbyuxf5w,The Orangery,241,"[{'alias': 'british', 'title': 'British'}, {'alias': 'coffee', 'title': 'Coffee & Tea'}, {'alias': 'tea', 'title': 'Tea Rooms'}]",4.0,576,51.5066360577041,-0.187725349125042,2b52d72500bd4fb639ab9f79df7e3c78
hGiblm0l67sLGTtsMvx51A,The Churchill Arms,381,"[{'alias': 'pubs', 'title': 'Pubs'}, {'alias': 'thai', 'title': 'Thai'}]",4.0,888,51.5068261,-0.194781,2b52d72500bd4fb639ab9f79df7e3c78
BS0bjO_4KycI0_rSgnEUsg,Kensington Gardens,98,"[{'alias': 'parks', 'title': 'Parks'}]",4.5,702,51.506934,-0.179197,2b52d72500bd4fb639ab9f79df7e3c78
6Iim5dRi-_VuS19pF-BrEw,Science Museum,248,"[{'alias': 'museums', 'title': 'Museums'}]",4.0,886,51.4974526510501,-0.17417859929862,2b52d72500bd4fb639ab9f79df7e3c78
JcO8N2mrooxEoFZTRiLRqw,The Queen's Arms,135,"[{'alias': 'pubs', 'title': 'Pubs'}, {'alias': 'british', 'title': 'British'}]",4.0,400,51.4992491095565,-0.180797918037262,2b52d72500bd4fb639ab9f79df7e3c78
tcVWoHSko9PIy_Ec95_j1A,Candella Tea Room,93,"[{'alias': 'tea', 'title': 'Tea Rooms'}]",4.5,551,51.5040735504425,-0.192011632025242,2b52d72500bd4fb639ab9f79df7e3c78
d7jSJ6Arfb-E2hW86zFjpA,The Milestone Hotel and Residences,35,"[{'alias': 'hotels', 'title': 'Hotels'}, {'alias': 'british', 'title': 'British'}]",5.0,119,51.50201555,-0.1866541,2b52d72500bd4fb639ab9f79df7e3c78
Z-hJS6BX68-B2pEuBx9I4w,Launceston Place,56,"[{'alias': 'british', 'title': 'British'}]",4.5,294,51.499092350301,-0.18513486877974,2b52d72500bd4fb639ab9f79df7e3c78
LNa5Ic4DG_U48w_70IhZdA,Kensington Palace,128,"[{'alias': 'landmarks', 'title': 'Landmarks & Historical Buildings'}]",4.0,388,51.5051097125178,-0.186424255371094,2b52d72500bd4fb639ab9f79df7e3c78
disw05otT_liXnTEy-6ISA,Orjowan Lebanese Cuisine,113,"[{'alias': 'mideastern', 'title': 'Middle Eastern'}]",4.5,1148,51.4928295219961,-0.193373873798701,2b52d72500bd4fb639ab9f79df7e3c78
eekflLQwzpeZ9sNg89F38A,Jakobs,27,"[{'alias': 'mediterranean', 'title': 'Mediterranean'}, {'alias': 'mideastern', 'title': 'Middle Eastern'}, {'alias': 'delis', 'title': 'Delis'}]",5.0,308,51.49905885109,-0.18382193239086,2b52d72500bd4fb639ab9f79df7e3c78
OLXUZqx6doQtdeHfyEoyOw,Balans Soho Society,99,"[{'alias': 'breakfast_brunch', 'title': 'Breakfast & Brunch'}, {'alias': 'british', 'title': 'British'}, {'alias': 'cocktailbars', 'title': 'Cocktail Bars'}]",4.0,753,51.4999833,-0.1956639,2b52d72500bd4fb639ab9f79df7e3c78
b7RW2pHBLX1gpSKCrIm4AQ,Builders Arms,70,"[{'alias': 'pubs', 'title': 'Pubs'}, {'alias': 'british', 'title': 'British'}]",4.0,344,51.4994295095615,-0.188299279589993,2b52d72500bd4fb639ab9f79df7e3c78
vlq4D26p_143Tj21OF-iMA,Dishoom,577,"[{'alias': 'indpak', 'title': 'Indian'}, {'alias': 'breakfast_brunch', 'title': 'Breakfast & Brunch'}]",4.5,231,51.5245310066818,-0.076594190862934,e7899ea58fd18b220d81d76c035834cf
CrQcYS4nWWdXmSD1pxf_KA,Beigel Bake,489,"[{'alias': 'bakeries', 'title': 'Bakeries'}, {'alias': 'bagels', 'title': 'Bagels'}]",4.0,495,51.524391,-0.071726,e7899ea58fd18b220d81d76c035834cf
iDneZRtqN6dimKmcNQjVZA,The Clove Club,110,"[{'alias': 'british', 'title': 'British'}, {'alias': 'cocktailbars', 'title': 'Cocktail Bars'}]",4.5,101,51.5270489,-0.0791196,e7899ea58fd18b220d81d76c035834cf
68gc1BAE1IT_zZghFafw0Q,Ozone Coffee,193,"[{'alias': 'coffee', 'title': 'Coffee & Tea'}, {'alias': 'breakfast_brunch', 'title': 'Breakfast & Brunch'}]",4.5,620,51.524683689256,-0.086674106560876,e7899ea58fd18b220d81d76c035834cf
SCdYgnZUaaQiCAUnfRxlsg,Happiness Forgets,111,"[{'alias': 'cocktailbars', 'title': 'Cocktail Bars'}]",4.5,284,51.52770282863,-0.0816464424133301,e7899ea58fd18b220d81d76c035834cf
-ylzTrYtRJUJa2BuAInoyQ,Friends of Ours,96,"[{'alias': 'cafes', 'title': 'Cafes'}]",4.5,490,51.5291189,-0.0836995,e7899ea58fd18b220d81d76c035834cf
DI9SUiuxlf1WjkTu_jJSbg,Hawksmoor Spitalfields,177,"[{'alias': 'steak', 'title': 'Steakhouses'}, {'alias': 'british', 'title': 'British'}]",4.5,605,51.5211502,-0.075657,e7899ea58fd18b220d81d76c035834cf
emdb4ELhKKQXpJ0lIOdg0w,Nightjar,186,"[{'alias': 'lounges', 'title': 'Lounges'}, {'alias': 'cocktailbars', 'title': 'Cocktail Bars'}]",4.5,662,51.5265350341797,-0.0877109989523888,e7899ea58fd18b220d81d76c035834cf
qF2RobL-4k6IYnS6hpqEyA,Poppies,374,"[{'alias': 'fishnchips', 'title': 'Fish & Chips'}, {'alias': 'hotdogs', 'title': 'Fast Food'}]",4.0,735,51.5202629,-0.074075,e7899ea58fd18b220d81d76c035834cf
vCF8ut7OZcfA4hEmhngfSQ,Andina,148,"[{'alias': 'breakfast_brunch', 'title': 'Breakfast & Brunch'}, {'alias': 'peruvian', 'title': 'Peruvian'}]",4.0,238,51.5243208695971,-0.077134990126122,e7899ea58fd18b220d81d76c035834cf
t4IGyZgC1aNM9XUvkD5L_g,Callooh Callay,139,"[{'alias': 'cocktailbars', 'title': 'Cocktail Bars'}]",4.0,122,51.5263047,-0.0801422,e7899ea58fd18b220d81d76c035834cf
ao-yAAnj8D_D9WI7qgLOow,The Breakfast Club,212,"[{'alias': 'breakfast_brunch', 'title': 'Breakfast & Brunch'}, {'alias': 'tradamerican', 'title': 'American (Traditional)'}, {'alias': 'coffee', 'title': 'Coffee & Tea'}]",3.5,218,51.5269878207578,-0.0811266326024151,e7899ea58fd18b220d81d76c035834cf
vvE5E6WcPkK6ZB3Ivkqiqg,Flat Iron,51,"[{'alias': 'steak', 'title': 'Steakhouses'}]",4.5,227,51.5247221,-0.0804249,e7899ea58fd18b220d81d76c035834cf
ZLPQlA8pLRvNQ1kDCVHmVQ,Pizza East,245,"[{'alias': 'pizza', 'title': 'Pizza'}, {'alias': 'desserts', 'title': 'Desserts'}, {'alias': 'breakfast_brunch', 'title': 'Breakfast & Brunch'}]",3.5,325,51.5240601,-0.0770451,e7899ea58fd18b220d81d76c035834cf
klZzSaDOWWX4M4wJI07K6g,BrewDog Shoreditch,97,"[{'alias': 'cocktailbars', 'title': 'Cocktail Bars'}, {'alias': 'pubs', 'title': 'Pubs'}]",4.0,423,51.524392008967,-0.0729131698608398,e7899ea58fd18b220d81d76c035834cf
m3vdBGC0X94sG_5pglDcjQ,St. John Bread & Wine,139,"[{'alias': 'bakeries', 'title': 'Bakeries'}, {'alias': 'beer_and_wine', 'title': 'Beer, Wine & Spirits'}]",4.5,788,51.5196695,-0.074299,e7899ea58fd18b220d81d76c035834cf
tQLHS3esu_vLtkbdPYSY6A,On The Bab,96,"[{'alias': 'korean', 'title': 'Korean'}]",4.0,238,51.5267653903883,-0.0815281434501047,e7899ea58fd18b220d81d76c035834cf
REsQeOq673VB-zjbZFbnIQ,Meat Mission,108,"[{'alias': 'burgers', 'title': 'Burgers'}, {'alias': 'newamerican', 'title': 'American (New)'}]",4.0,316,51.5273008570266,-0.0824617613588274,e7899ea58fd18b220d81d76c035834cf
zKIAjpRUcwkBpWS9aY1o_A,C√¢y Tre,134,"[{'alias': 'vietnamese', 'title': 'Vietnamese'}]",3.5,257,51.526887,-0.081641,e7899ea58fd18b220d81d76c035834cf
XPrf1WmmdQ3hyjCExAjrIA,Lounge Bohemia,68,"[{'alias': 'lounges', 'title': 'Lounges'}]",4.5,385,51.5229139449655,-0.0780906239161028,e7899ea58fd18b220d81d76c035834cf
vlq4D26p_143Tj21OF-iMA,Dishoom,577,"[{'alias': 'indpak', 'title': 'Indian'}, {'alias': 'breakfast_brunch', 'title': 'Breakfast & Brunch'}]",4.5,621,51.5245310066818,-0.076594190862934,909898d9d1513581b527f22453b32aac
hOLFwKg4-0FsCleJ4yoCXw,Duck & Waffle,827,"[{'alias': 'modern_european', 'title': 'Modern European'}, {'alias': 'bars', 'title': 'Bars'}, {'alias': 'british', 'title': 'British'}]",4.0,559,51.516178,-0.08094,909898d9d1513581b527f22453b32aac
68gc1BAE1IT_zZghFafw0Q,Ozone Coffee,193,"[{'alias': 'coffee', 'title': 'Coffee & Tea'}, {'alias': 'breakfast_brunch', 'title': 'Breakfast & Brunch'}]",4.5,469,51.524683689256,-0.086674106560876,909898d9d1513581b527f22453b32aac
CrQcYS4nWWdXmSD1pxf_KA,Beigel Bake,489,"[{'alias': 'bakeries', 'title': 'Bakeries'}, {'alias': 'bagels', 'title': 'Bagels'}]",4.0,899,51.524391,-0.071726,909898d9d1513581b527f22453b32aac
qF2RobL-4k6IYnS6hpqEyA,Poppies,374,"[{'alias': 'fishnchips', 'title': 'Fish & Chips'}, {'alias': 'hotdogs', 'title': 'Fast Food'}]",4.0,656,51.5202629,-0.074075,909898d9d1513581b527f22453b32aac
DI9SUiuxlf1WjkTu_jJSbg,Hawksmoor Spitalfields,177,"[{'alias': 'steak', 'title': 'Steakhouses'}, {'alias': 'british', 'title': 'British'}]",4.5,542,51.5211502,-0.075657,909898d9d1513581b527f22453b32aac
emdb4ELhKKQXpJ0lIOdg0w,Nightjar,186,"[{'alias': 'lounges', 'title': 'Lounges'}, {'alias': 'cocktailbars', 'title': 'Cocktail Bars'}]",4.5,685,51.5265350341797,-0.0877109989523888,909898d9d1513581b527f22453b32aac
JhmrjmyrIhAVlM0D0n3VoQ,Sushisamba,271,"[{'alias': 'asianfusion', 'title': 'Asian Fusion'}, {'alias': 'sushi', 'title': 'Sushi Bars'}]",4.0,559,51.516179,-0.080946,909898d9d1513581b527f22453b32aac
m3vdBGC0X94sG_5pglDcjQ,St. John Bread & Wine,139,"[{'alias': 'bakeries', 'title': 'Bakeries'}, {'alias': 'beer_and_wine', 'title': 'Beer, Wine & Spirits'}]",4.5,654,51.5196695,-0.074299,909898d9d1513581b527f22453b32aac
4lCI-05rQo2hQMr9qXKJAQ,Pizza Union,92,"[{'alias': 'pizza', 'title': 'Pizza'}]",4.5,570,51.5175265894232,-0.0773585960268974,909898d9d1513581b527f22453b32aac
PrIqHQtsQl-DnafTdS326A,Whitecross Market,73,"[{'alias': 'streetvendors', 'title': 'Street Vendors'}]",4.5,674,51.5228285836074,-0.0927653379297215,909898d9d1513581b527f22453b32aac
vCF8ut7OZcfA4hEmhngfSQ,Andina,148,"[{'alias': 'breakfast_brunch', 'title': 'Breakfast & Brunch'}, {'alias': 'peruvian', 'title': 'Peruvian'}]",4.0,577,51.5243208695971,-0.077134990126122,909898d9d1513581b527f22453b32aac
-ylzTrYtRJUJa2BuAInoyQ,Friends of Ours,96,"[{'alias': 'cafes', 'title': 'Cafes'}]",4.5,903,51.5291189,-0.0836995,909898d9d1513581b527f22453b32aac
O3WaROs_7OFbYv4B-7m02Q,Polo 24 Hour Bar,111,"[{'alias': 'diners', 'title': 'Diners'}, {'alias': 'cafes', 'title': 'Cafes'}, {'alias': 'breakfast_brunch', 'title': 'Breakfast & Brunch'}]",4.0,413,51.517821,-0.080269,909898d9d1513581b527f22453b32aac
xcWZzhS9HgG3-H6xQMtOtA,The Mayor of Scaredy Cat Town,100,"[{'alias': 'lounges', 'title': 'Lounges'}]",4.0,435,51.51837,-0.07872,909898d9d1513581b527f22453b32aac
SCdYgnZUaaQiCAUnfRxlsg,Happiness Forgets,111,"[{'alias': 'cocktailbars', 'title': 'Cocktail Bars'}]",4.5,761,51.52770282863,-0.0816464424133301,909898d9d1513581b527f22453b32aac
iDneZRtqN6dimKmcNQjVZA,The Clove Club,110,"[{'alias': 'british', 'title': 'British'}, {'alias': 'cocktailbars', 'title': 'Cocktail Bars'}]",4.5,742,51.5270489,-0.0791196,909898d9d1513581b527f22453b32aac
vvE5E6WcPkK6ZB3Ivkqiqg,Flat Iron,51,"[{'alias': 'steak', 'title': 'Steakhouses'}]",4.5,490,51.5247221,-0.0804249,909898d9d1513581b527f22453b32aac
ZLPQlA8pLRvNQ1kDCVHmVQ,Pizza East,245,"[{'alias': 'pizza', 'title': 'Pizza'}, {'alias': 'desserts', 'title': 'Desserts'}, {'alias': 'breakfast_brunch', 'title': 'Breakfast & Brunch'}]",3.5,538,51.5240601,-0.0770451,909898d9d1513581b527f22453b32aac
XPrf1WmmdQ3hyjCExAjrIA,Lounge Bohemia,68,"[{'alias': 'lounges', 'title': 'Lounges'}]",4.5,432,51.5229139449655,-0.0780906239161028,909898d9d1513581b527f22453b32aac
Vaq49W0ubGjuIc4h5_qQ0w,The Mayfair Chippy,376,"[{'alias': 'fishnchips', 'title': 'Fish & Chips'}]",4.5,834,51.5131345,-0.1533961,eb47143bda16b9e140e9c0ebaaad79e5
hF7L2L1pcPqNrE0js9xMDw,The Wallace Collection,118,"[{'alias': 'museums', 'title': 'Museums'}, {'alias': 'galleries', 'title': 'Art Galleries'}, {'alias': 'venues', 'title': 'Venues & Event Spaces'}]",4.5,426,51.5174316756205,-0.153022552114862,eb47143bda16b9e140e9c0ebaaad79e5
odnKjwTrgHDlgw0l43eKFA,The Golden Hind,262,"[{'alias': 'fishnchips', 'title': 'Fish & Chips'}]",4.0,496,51.5180015563965,-0.151026993989944,eb47143bda16b9e140e9c0ebaaad79e5
JSXnB6RipjQdQOXoh9IGgA,The Regent's Park,211,"[{'alias': 'parks', 'title': 'Parks'}]",4.5,899,51.5282902069734,-0.155611038208008,eb47143bda16b9e140e9c0ebaaad79e5
CnxqwrH8M7QDzR2G2_taLw,Il Blandford's,79,"[{'alias': 'italian', 'title': 'Italian'}, {'alias': 'breakfast_brunch', 'title': 'Breakfast & Brunch'}, {'alias': 'pizza', 'title': 'Pizza'}]",4.5,99,51.520315,-0.155747,eb47143bda16b9e140e9c0ebaaad79e5
RFyH1Qiv06LYHrwqzLkVXg,Roti Chai,310,"[{'alias': 'indpak', 'title': 'Indian'}, {'alias': 'kebab', 'title': 'Kebab'}]",4.0,635,51.5146226,-0.1557135,eb47143bda16b9e140e9c0ebaaad79e5
bJiVADMSTEKj0MjqiLrOPA,The Grazing Goat Marylebone,270,"[{'alias': 'gastropubs', 'title': 'Gastropubs'}, {'alias': 'british', 'title': 'British'}]",4.0,547,51.515378341447,-0.15823586449841,eb47143bda16b9e140e9c0ebaaad79e5
6tXkeZlisxTtdUsjDaTqaw,Chiltern Firehouse,166,"[{'alias': 'modern_european', 'title': 'Modern European'}, {'alias': 'french', 'title': 'French'}, {'alias': 'british', 'title': 'British'}]",4.0,236,51.5187121017659,-0.154846859653053,eb47143bda16b9e140e9c0ebaaad79e5
skSR93eUT6KuFnDI4ksxUw,The Rajdoot,104,"[{'alias': 'indpak', 'title': 'Indian'}]",4.5,262,51.5205999,-0.153431,eb47143bda16b9e140e9c0ebaaad79e5
cV9dn2Db9xzd4YnnEmMLnQ,Le Relais de Venise L'Entrec√¥te,195,"[{'alias': 'french', 'title': 'French'}, {'alias': 'steak', 'title': 'Steakhouses'}]",4.0,479,51.518264,-0.151117,eb47143bda16b9e140e9c0ebaaad79e5
annFT8pEr7pjqCfQXKY9dw,Madame Tussaud's,323,"[{'alias': 'museums', 'title': 'Museums'}]",3.5,330,51.522895,-0.154968,eb47143bda16b9e140e9c0ebaaad79e5
Y775ayDb-qviW7Ys_uzxEQ,Patty & Bun,197,"[{'alias': 'burgers', 'title': 'Burgers'}]",4.5,671,51.515786,-0.150785,eb47143bda16b9e140e9c0ebaaad79e5
q-OOWNDtWue-ALqtnL2iDQ,Trishna,103,"[{'alias': 'indpak', 'title': 'Indian'}]",4.5,360,51.518294,-0.153047,eb47143bda16b9e140e9c0ebaaad79e5
-hxvERPtfzzRMtEL-R661w,La Fromagerie,100,"[{'alias': 'cheese', 'title': 'Cheese Shops'}, {'alias': 'delis', 'title': 'Delis'}]",4.0,346,51.5198559022117,-0.152211421569433,eb47143bda16b9e140e9c0ebaaad79e5
teXPunKtpwj0NuttvPYhyQ,The Victoria,255,"[{'alias': 'pubs', 'title': 'Pubs'}, {'alias': 'british', 'title': 'British'}]",4.5,1226,51.51350403679,-0.17119959969309,eb47143bda16b9e140e9c0ebaaad79e5
y8xX3BDj1bf7-wc4Q9Atvg,The Monocle Cafe,71,"[{'alias': 'cafes', 'title': 'Cafes'}]",4.0,237,51.5188109085709,-0.154666668198166,eb47143bda16b9e140e9c0ebaaad79e5
1QzmZlxN3LRhBYYbCqjD-g,Zayna,101,"[{'alias': 'indpak', 'title': 'Indian'}, {'alias': 'pakistani', 'title': 'Pakistani'}, {'alias': 'halal', 'title': 'Halal'}]",4.0,591,51.514952,-0.158385,eb47143bda16b9e140e9c0ebaaad79e5
78YWTO9mTmA7WHOl5JmksQ,Purl,71,"[{'alias': 'lounges', 'title': 'Lounges'}]",4.0,275,51.518505,-0.154465,eb47143bda16b9e140e9c0ebaaad79e5
je97zHcsRbKm5Ji10JtNSA,Dinings,67,"[{'alias': 'sushi', 'title': 'Sushi Bars'}, {'alias': 'japanese', 'title': 'Japanese'}]",4.0,522,51.519827,-0.164761,eb47143bda16b9e140e9c0ebaaad79e5
W_MsdJkinHKRqn5P4PkRUw,Texture,53,"[{'alias': 'champagne_bars', 'title': 'Champagne Bars'}, {'alias': 'modern_european', 'title': 'Modern European'}, {'alias': 'gastropubs', 'title': 'Gastropubs'}]",4.5,600,51.514873602131,-0.156574989917278,eb47143bda16b9e140e9c0ebaaad79e5
mc1KLbA1Sy4kUTKo0ZEeRQ,Dishoom,633,"[{'alias': 'indpak', 'title': 'Indian'}]",4.5,401,51.513087,-0.139767,911bcf42fd06c66c5c81e7384762b84c
zJNI06Y2zZQFh9OBSFCdgQ,Sketch,941,"[{'alias': 'french', 'title': 'French'}, {'alias': 'modern_european', 'title': 'Modern European'}, {'alias': 'cocktailbars', 'title': 'Cocktail Bars'}]",4.0,287,51.5127614699071,-0.14159163911048,911bcf42fd06c66c5c81e7384762b84c
IBV7BsXnv2gX68nWUARhjw,Mother Mash,504,"[{'alias': 'british', 'title': 'British'}]",4.0,412,51.512935,-0.139414,911bcf42fd06c66c5c81e7384762b84c
qhbCUUn1CM27dvTPUwvAUA,Flat Iron,447,"[{'alias': 'steak', 'title': 'Steakhouses'}]",4.5,431,51.51212,-0.1384008,911bcf42fd06c66c5c81e7384762b84c
e5jPAqpCcIAsTtasUN5h2g,The Wolseley,607,"[{'alias': 'cafes', 'title': 'Cafes'}, {'alias': 'british', 'title': 'British'}, {'alias': 'tea', 'title': 'Tea Rooms'}]",4.0,409,51.507617,-0.141012,911bcf42fd06c66c5c81e7384762b84c
Vaq49W0ubGjuIc4h5_qQ0w,The Mayfair Chippy,376,"[{'alias': 'fishnchips', 'title': 'Fish & Chips'}]",4.5,692,51.5131345,-0.1533961,911bcf42fd06c66c5c81e7384762b84c
AMfqUC9oYC0xc55MaXbvAA,NOPI,281,"[{'alias': 'mediterranean', 'title': 'Mediterranean'}]",4.0,402,51.511617,-0.1385226,911bcf42fd06c66c5c81e7384762b84c
4VqbGRaYQJakPe2K6jKhOQ,Hyde Park,402,"[{'alias': 'parks', 'title': 'Parks'}]",4.5,958,51.5039538036569,-0.152711774741523,911bcf42fd06c66c5c81e7384762b84c
otUz0bAJLkorJkMgEjRErA,Burger & Lobster,243,"[{'alias': 'tradamerican', 'title': 'American (Traditional)'}, {'alias': 'burgers', 'title': 'Burgers'}, {'alias': 'seafood', 'title': 'Seafood'}]",4.5,428,51.5069919134923,-0.145631313738818,911bcf42fd06c66c5c81e7384762b84c
GSbQscE52ZfK43ykA6vLbg,Fortnum and Mason: Diamond Jubilee Tea Salon,294,"[{'alias': 'desserts', 'title': 'Desserts'}, {'alias': 'british', 'title': 'British'}, {'alias': 'tea', 'title': 'Tea Rooms'}]",4.0,465,51.5087069889729,-0.138279327972609,911bcf42fd06c66c5c81e7384762b84c
xEl4Oi1lfAa5g17Z5UsHNQ,Gymkhana,166,"[{'alias': 'indpak', 'title': 'Indian'}, {'alias': 'cocktailbars', 'title': 'Cocktail Bars'}]",4.5,310,51.50842,-0.1416607,911bcf42fd06c66c5c81e7384762b84c
sYwBQ7mJYhB35nn-_SZstQ,Yauatcha,518,"[{'alias': 'dimsum', 'title': 'Dim Sum'}, {'alias': 'seafood', 'title': 'Seafood'}, {'alias': 'noodles', 'title': 'Noodles'}]",4.0,707,51.5137076071076,-0.135128831605189,911bcf42fd06c66c5c81e7384762b84c
zdyKTWY6jDasd6Q8BEJdAw,Honest Burgers Meard St - Soho,301,"[{'alias': 'burgers', 'title': 'Burgers'}]",4.5,835,51.5134184063764,-0.132883885733008,911bcf42fd06c66c5c81e7384762b84c
LSvWWKNJi4-gaaRDU-VVYA,Golden Union Fish Bar,315,"[{'alias': 'fishnchips', 'title': 'Fish & Chips'}]",4.0,686,51.5153383,-0.1376925,911bcf42fd06c66c5c81e7384762b84c
LOfW8J-1Tac-7aM04luJrg,Gelupo,213,"[{'alias': 'icecream', 'title': 'Ice Cream & Frozen Yogurt'}]",4.5,729,51.5115509033203,-0.133706003427505,911bcf42fd06c66c5c81e7384762b84c
ep7Q8nZSqQJztyq_JgUGhg,Goodman,110,"[{'alias': 'steak', 'title': 'Steakhouses'}, {'alias': 'burgers', 'title': 'Burgers'}, {'alias': 'british', 'title': 'British'}]",4.5,292,51.5131345,-0.1422486,911bcf42fd06c66c5c81e7384762b84c
tYynO1nOy1GKxMV3jkxbmw,The Breakfast Club,551,"[{'alias': 'coffee', 'title': 'Coffee & Tea'}, {'alias': 'breakfast_brunch', 'title': 'Breakfast & Brunch'}, {'alias': 'tradamerican', 'title': 'American (Traditional)'}]",4.0,751,51.514733,-0.135406,911bcf42fd06c66c5c81e7384762b84c
DnBY9gukSdy42EoJtBhdaQ,Tibits,165,"[{'alias': 'vegetarian', 'title': 'Vegetarian'}, {'alias': 'vegan', 'title': 'Vegan'}]",4.0,318,51.511302947998,-0.139624997973442,911bcf42fd06c66c5c81e7384762b84c
bXo_3uLhacyeGJ0iF743PQ,Mildreds,302,"[{'alias': 'vegan', 'title': 'Vegan'}, {'alias': 'salad', 'title': 'Salad'}, {'alias': 'burgers', 'title': 'Burgers'}]",4.0,592,51.5130233764648,-0.136484995484352,911bcf42fd06c66c5c81e7384762b84c
N7VEVrHgwcm4-Aj4neD79g,Hawksmoor,162,"[{'alias': 'seafood', 'title': 'Seafood'}, {'alias': 'steak', 'title': 'Steakhouses'}]",4.5,565,51.5097072807539,-0.136161326657445,911bcf42fd06c66c5c81e7384762b84c
mvs07Hrm2YrwObqDubABFg,St. Paul's Cathedral,313,"[{'alias': 'landmarks', 'title': 'Landmarks & Historical Buildings'}, {'alias': 'churches', 'title': 'Churches'}]",4.5,138,51.5137180425786,-0.0994492651268561,6da973289e6a340aa31d03dc615d43c8
QXOrompG3b2o7g6P4ePb5w,Tate Modern,727,"[{'alias': 'artmuseums', 'title': 'Art Museums'}]",4.0,514,51.5078610102146,-0.0991344451904297,6da973289e6a340aa31d03dc615d43c8
Z0r83lDOA1mI8RpNccXtHw,The Fat Bear,127,"[{'alias': 'tradamerican', 'title': 'American (Traditional)'}, {'alias': 'soulfood', 'title': 'Soul Food'}, {'alias': 'cajun', 'title': 'Cajun/Creole'}]",4.5,173,51.5131833881734,-0.10138103121642,6da973289e6a340aa31d03dc615d43c8
-Ve2_hHfPczRX159xt0BCg,Ye Olde Cheshire Cheese,374,"[{'alias': 'pubs', 'title': 'Pubs'}, {'alias': 'british', 'title': 'British'}]",4.0,592,51.5143449,-0.107315,6da973289e6a340aa31d03dc615d43c8
K0lmqEgpNz97FausJUyn1A,Swan,258,"[{'alias': 'british', 'title': 'British'}, {'alias': 'bars', 'title': 'Bars'}, {'alias': 'venues', 'title': 'Venues & Event Spaces'}]",4.0,483,51.50835,-0.096985,6da973289e6a340aa31d03dc615d43c8
IWl1Y0eQOZSnYeIDw94svg,Monmouth Coffee,317,"[{'alias': 'coffee', 'title': 'Coffee & Tea'}]",4.5,937,51.5055383383613,-0.0914615294783139,6da973289e6a340aa31d03dc615d43c8
qaSQQRWgxlWgGgQPHbfgbA,Millennium Bridge,125,"[{'alias': 'landmarks', 'title': 'Landmarks & Historical Buildings'}]",4.5,354,51.5093109572,-0.0985913331076,6da973289e6a340aa31d03dc615d43c8
rKwkCvsSfp8z7w1CmNnMMQ,The Table,288,"[{'alias': 'british', 'title': 'British'}, {'alias': 'breakfast_brunch', 'title': 'Breakfast & Brunch'}, {'alias': 'bars', 'title': 'Bars'}]",4.0,765,51.505604,-0.099671,6da973289e6a340aa31d03dc615d43c8
KzYd2EaFvmu63wqTIektSA,Padella,265,"[{'alias': 'italian', 'title': 'Italian'}]",4.5,1037,51.5051451,-0.0899515,6da973289e6a340aa31d03dc615d43c8
P3YeWO3ODeWmQVi-IilkAQ,St John Bar and Restaurant,312,"[{'alias': 'british', 'title': 'British'}, {'alias': 'bars', 'title': 'Bars'}]",4.0,903,51.520481,-0.101486,6da973289e6a340aa31d03dc615d43c8
NEAPxGZfFuGZf8pjC2yhWQ,The Blackfriar,156,"[{'alias': 'pubs', 'title': 'Pubs'}]",4.0,319,51.51213429293,-0.10372875314406,6da973289e6a340aa31d03dc615d43c8
yEo_5mmozlhGpwUWEqaw9w,"OXO Tower Restaurant, Bar And Brasserie",232,"[{'alias': 'british', 'title': 'British'}, {'alias': 'cocktailbars', 'title': 'Cocktail Bars'}]",4.0,790,51.5083860657884,-0.108466279762297,6da973289e6a340aa31d03dc615d43c8
KZd0pTzAhKbIs9Lg94Delg,Bread Ahead Bakery | Borough Market,96,"[{'alias': 'bakeries', 'title': 'Bakeries'}]",4.5,935,51.5061427,-0.090258,6da973289e6a340aa31d03dc615d43c8
uwQVCV7lXyHM2uvwKei-Dw,Konditor & Cook,49,"[{'alias': 'bakeries', 'title': 'Bakeries'}, {'alias': 'cakeshop', 'title': 'Patisserie/Cake Shop'}]",4.5,399,51.51313,-0.0937,6da973289e6a340aa31d03dc615d43c8
8BIVr-9UFggPl9Of86wokQ,Burger and Lobster,61,"[{'alias': 'tradamerican', 'title': 'American (Traditional)'}]",4.5,348,51.5136669051182,-0.094483494758606,6da973289e6a340aa31d03dc615d43c8
oMsnFxtMvVgEM0l5ktF2iQ,City Of London,20,"[{'alias': 'landmarks', 'title': 'Landmarks & Historical Buildings'}]",5.0,167,51.513751,-0.10044,6da973289e6a340aa31d03dc615d43c8
4CGgn2MmN5Z7B6GAlMAcxQ,Mango Indian,144,"[{'alias': 'indpak', 'title': 'Indian'}]",4.5,939,51.504962,-0.092963,6da973289e6a340aa31d03dc615d43c8
c7urOor7CgoJAvuPezrDEQ,Bread Street Kitchen,163,"[{'alias': 'british', 'title': 'British'}, {'alias': 'breakfast_brunch', 'title': 'Breakfast & Brunch'}]",3.5,324,51.5134808,-0.0947269,6da973289e6a340aa31d03dc615d43c8
gnkQ-UbIX-vYWR-Rf_IcEQ,Ye Olde Mitre Inn,67,"[{'alias': 'pubs', 'title': 'Pubs'}]",4.5,875,51.5184387,-0.1074239,6da973289e6a340aa31d03dc615d43c8
SpMzwgQjKcnSnKQvwjxckQ,Alchemy,26,"[{'alias': 'coffee', 'title': 'Coffee & Tea'}, {'alias': 'cafes', 'title': 'Cafes'}]",4.5,263,51.5134264160446,-0.102642286734127,6da973289e6a340aa31d03dc615d43c8
vlq4D26p_143Tj21OF-iMA,Dishoom,577,"[{'alias': 'indpak', 'title': 'Indian'}, {'alias': 'breakfast_brunch', 'title': 'Breakfast & Brunch'}]",4.5,881,51.5245310066818,-0.076594190862934,f8d7365346582b107b65bab899772875
emdb4ELhKKQXpJ0lIOdg0w,Nightjar,186,"[{'alias': 'lounges', 'title': 'Lounges'}, {'alias': 'cocktailbars', 'title': 'Cocktail Bars'}]",4.5,238,51.5265350341797,-0.0877109989523888,f8d7365346582b107b65bab899772875
-ylzTrYtRJUJa2BuAInoyQ,Friends of Ours,96,"[{'alias': 'cafes', 'title': 'Cafes'}]",4.5,261,51.5291189,-0.0836995,f8d7365346582b107b65bab899772875
68gc1BAE1IT_zZghFafw0Q,Ozone Coffee,193,"[{'alias': 'coffee', 'title': 'Coffee & Tea'}, {'alias': 'breakfast_brunch', 'title': 'Breakfast & Brunch'}]",4.5,446,51.524683689256,-0.086674106560876,f8d7365346582b107b65bab899772875
SCdYgnZUaaQiCAUnfRxlsg,Happiness Forgets,111,"[{'alias': 'cocktailbars', 'title': 'Cocktail Bars'}]",4.5,416,51.52770282863,-0.0816464424133301,f8d7365346582b107b65bab899772875
iDneZRtqN6dimKmcNQjVZA,The Clove Club,110,"[{'alias': 'british', 'title': 'British'}, {'alias': 'cocktailbars', 'title': 'Cocktail Bars'}]",4.5,604,51.5270489,-0.0791196,f8d7365346582b107b65bab899772875
S3h8uhI3wK2Fn4e9gw9bfA,Shoreditch Grind,118,"[{'alias': 'coffee', 'title': 'Coffee & Tea'}, {'alias': 'cocktailbars', 'title': 'Cocktail Bars'}, {'alias': 'breakfast_brunch', 'title': 'Breakfast & Brunch'}]",4.0,317,51.5258391235513,-0.0879659656067133,f8d7365346582b107b65bab899772875
PrIqHQtsQl-DnafTdS326A,Whitecross Market,73,"[{'alias': 'streetvendors', 'title': 'Street Vendors'}]",4.5,746,51.5228285836074,-0.0927653379297215,f8d7365346582b107b65bab899772875
ao-yAAnj8D_D9WI7qgLOow,The Breakfast Club,212,"[{'alias': 'breakfast_brunch', 'title': 'Breakfast & Brunch'}, {'alias': 'tradamerican', 'title': 'American (Traditional)'}, {'alias': 'coffee', 'title': 'Coffee & Tea'}]",3.5,476,51.5269878207578,-0.0811266326024151,f8d7365346582b107b65bab899772875
bgNNAcV-GYqPXkYcHmZNCg,Curious Yellow Kaf√©,64,"[{'alias': 'coffee', 'title': 'Coffee & Tea'}, {'alias': 'scandinavian', 'title': 'Scandinavian'}, {'alias': 'breakfast_brunch', 'title': 'Breakfast & Brunch'}]",4.5,270,51.52954503532,-0.0838136672973633,f8d7365346582b107b65bab899772875
3JWtDO-41MPJ-IM6a-jVmA,Old Fountain,46,"[{'alias': 'pubs', 'title': 'Pubs'}, {'alias': 'gastropubs', 'title': 'Gastropubs'}]",4.5,212,51.527072,-0.089101,f8d7365346582b107b65bab899772875
REsQeOq673VB-zjbZFbnIQ,Meat Mission,108,"[{'alias': 'burgers', 'title': 'Burgers'}, {'alias': 'newamerican', 'title': 'American (New)'}]",4.0,377,51.5273008570266,-0.0824617613588274,f8d7365346582b107b65bab899772875
DI9SUiuxlf1WjkTu_jJSbg,Hawksmoor Spitalfields,177,"[{'alias': 'steak', 'title': 'Steakhouses'}, {'alias': 'british', 'title': 'British'}]",4.5,1168,51.5211502,-0.075657,f8d7365346582b107b65bab899772875
t4IGyZgC1aNM9XUvkD5L_g,Callooh Callay,139,"[{'alias': 'cocktailbars', 'title': 'Cocktail Bars'}]",4.0,585,51.5263047,-0.0801422,f8d7365346582b107b65bab899772875
vvE5E6WcPkK6ZB3Ivkqiqg,Flat Iron,51,"[{'alias': 'steak', 'title': 'Steakhouses'}]",4.5,633,51.5247221,-0.0804249,f8d7365346582b107b65bab899772875
nwZeSFKD0dRqDM1H4pDy3w,Look Mum No Hands!,153,"[{'alias': 'bikes', 'title': 'Bikes'}, {'alias': 'cafes', 'title': 'Cafes'}, {'alias': 'bike_repair_maintenance', 'title': 'Bike Repair/Maintenance'}]",4.0,835,51.524013227609,-0.096938452042226,f8d7365346582b107b65bab899772875
vCF8ut7OZcfA4hEmhngfSQ,Andina,148,"[{'alias': 'breakfast_brunch', 'title': 'Breakfast & Brunch'}, {'alias': 'peruvian', 'title': 'Peruvian'}]",4.0,862,51.5243208695971,-0.077134990126122,f8d7365346582b107b65bab899772875
zKIAjpRUcwkBpWS9aY1o_A,C√¢y Tre,134,"[{'alias': 'vietnamese', 'title': 'Vietnamese'}]",3.5,441,51.526887,-0.081641,f8d7365346582b107b65bab899772875
tQLHS3esu_vLtkbdPYSY6A,On The Bab,96,"[{'alias': 'korean', 'title': 'Korean'}]",4.0,461,51.5267653903883,-0.0815281434501047,f8d7365346582b107b65bab899772875
KkcJrYaogWg5VvV3-HC_HQ,The Jones Family Project,62,"[{'alias': 'british', 'title': 'British'}, {'alias': 'bars', 'title': 'Bars'}]",4.0,446,51.5258201511173,-0.0829150037047839,f8d7365346582b107b65bab899772875
P3YeWO3ODeWmQVi-IilkAQ,St John Bar and Restaurant,312,"[{'alias': 'british', 'title': 'British'}, {'alias': 'bars', 'title': 'Bars'}]",4.0,530,51.520481,-0.101486,17080ae3ef6c19fbe59e8e5c17d31d9b
PrIqHQtsQl-DnafTdS326A,Whitecross Market,73,"[{'alias': 'streetvendors', 'title': 'Street Vendors'}]",4.5,150,51.5228285836074,-0.0927653379297215,17080ae3ef6c19fbe59e8e5c17d31d9b
68gc1BAE1IT_zZghFafw0Q,Ozone Coffee,193,"[{'alias': 'coffee', 'title': 'Coffee & Tea'}, {'alias': 'breakfast_brunch', 'title': 'Breakfast & Brunch'}]",4.5,602,51.524683689256,-0.086674106560876,17080ae3ef6c19fbe59e8e5c17d31d9b
nwZeSFKD0dRqDM1H4pDy3w,Look Mum No Hands!,153,"[{'alias': 'bikes', 'title': 'Bikes'}, {'alias': 'cafes', 'title': 'Cafes'}, {'alias': 'bike_repair_maintenance', 'title': 'Bike Repair/Maintenance'}]",4.0,181,51.524013227609,-0.096938452042226,17080ae3ef6c19fbe59e8e5c17d31d9b
emdb4ELhKKQXpJ0lIOdg0w,Nightjar,186,"[{'alias': 'lounges', 'title': 'Lounges'}, {'alias': 'cocktailbars', 'title': 'Cocktail Bars'}]",4.5,638,51.5265350341797,-0.0877109989523888,17080ae3ef6c19fbe59e8e5c17d31d9b
hOLFwKg4-0FsCleJ4yoCXw,Duck & Waffle,827,"[{'alias': 'modern_european', 'title': 'Modern European'}, {'alias': 'bars', 'title': 'Bars'}, {'alias': 'british', 'title': 'British'}]",4.0,1226,51.516178,-0.08094,17080ae3ef6c19fbe59e8e5c17d31d9b
-ylzTrYtRJUJa2BuAInoyQ,Friends of Ours,96,"[{'alias': 'cafes', 'title': 'Cafes'}]",4.5,1031,51.5291189,-0.0836995,17080ae3ef6c19fbe59e8e5c17d31d9b
zOLPCLptUE2UKRXYWCEHvg,The Modern Pantry,148,"[{'alias': 'breakfast_brunch', 'title': 'Breakfast & Brunch'}, {'alias': 'modern_european', 'title': 'Modern European'}]",4.0,597,51.5230301121618,-0.103575187145258,17080ae3ef6c19fbe59e8e5c17d31d9b
S3h8uhI3wK2Fn4e9gw9bfA,Shoreditch Grind,118,"[{'alias': 'coffee', 'title': 'Coffee & Tea'}, {'alias': 'cocktailbars', 'title': 'Cocktail Bars'}, {'alias': 'breakfast_brunch', 'title': 'Breakfast & Brunch'}]",4.0,579,51.5258391235513,-0.0879659656067133,17080ae3ef6c19fbe59e8e5c17d31d9b
Sf1u7eCFmf9E9B0agS1yXw,Cafe Du Marche,49,"[{'alias': 'french', 'title': 'French'}]",4.5,476,51.5206234,-0.1007171,17080ae3ef6c19fbe59e8e5c17d31d9b
2sI8YwsBmI3hO6Kl1PuWLg,J+A Caf√©,73,"[{'alias': 'coffee', 'title': 'Coffee & Tea'}, {'alias': 'breakfast_brunch', 'title': 'Breakfast & Brunch'}]",4.0,421,51.5230293273926,-0.101019002497196,17080ae3ef6c19fbe59e8e5c17d31d9b
HmOrOohddgdHLdLueTlNqQ,Pham Sushi,40,"[{'alias': 'hotdogs', 'title': 'Fast Food'}, {'alias': 'japanese', 'title': 'Japanese'}]",4.5,127,51.5233,-0.093295,17080ae3ef6c19fbe59e8e5c17d31d9b
SCdYgnZUaaQiCAUnfRxlsg,Happiness Forgets,111,"[{'alias': 'cocktailbars', 'title': 'Cocktail Bars'}]",4.5,1060,51.52770282863,-0.0816464424133301,17080ae3ef6c19fbe59e8e5c17d31d9b
-Ve2_hHfPczRX159xt0BCg,Ye Olde Cheshire Cheese,374,"[{'alias': 'pubs', 'title': 'Pubs'}, {'alias': 'british', 'title': 'British'}]",4.0,1277,51.5143449,-0.107315,17080ae3ef6c19fbe59e8e5c17d31d9b
gnkQ-UbIX-vYWR-Rf_IcEQ,Ye Olde Mitre Inn,67,"[{'alias': 'pubs', 'title': 'Pubs'}]",4.5,999,51.5184387,-0.1074239,17080ae3ef6c19fbe59e8e5c17d31d9b
tWqe8jJBRf-TjqwQAn1Xfw,The Jugged Hare,71,"[{'alias': 'brasseries', 'title': 'Brasseries'}, {'alias': 'british', 'title': 'British'}, {'alias': 'modern_european', 'title': 'Modern European'}]",4.0,363,51.520789,-0.090935,17080ae3ef6c19fbe59e8e5c17d31d9b
rb3DTjC5mhEnjy-ay0AYUw,The Dovetail,71,"[{'alias': 'pubs', 'title': 'Pubs'}, {'alias': 'belgian', 'title': 'Belgian'}]",4.0,622,51.5232408423047,-0.103924836781924,17080ae3ef6c19fbe59e8e5c17d31d9b
3JWtDO-41MPJ-IM6a-jVmA,Old Fountain,46,"[{'alias': 'pubs', 'title': 'Pubs'}, {'alias': 'gastropubs', 'title': 'Gastropubs'}]",4.5,609,51.527072,-0.089101,17080ae3ef6c19fbe59e8e5c17d31d9b
QL093hRyaf1jbInePxabVA,Fix Coffee,43,"[{'alias': 'coffee', 'title': 'Coffee & Tea'}]",4.0,126,51.523381117478,-0.093239775660327,17080ae3ef6c19fbe59e8e5c17d31d9b
4-XTDzMijxlATEnCQMvOJQ,Jerusalem Tavern,62,"[{'alias': 'pubs', 'title': 'Pubs'}]",4.0,648,51.521759651743,-0.10411592018887,17080ae3ef6c19fbe59e8e5c17d31d9b
mc1KLbA1Sy4kUTKo0ZEeRQ,Dishoom,633,"[{'alias': 'indpak', 'title': 'Indian'}]",4.5,430,51.513087,-0.139767,99e37e228edaf5187aa917de66113607
zJNI06Y2zZQFh9OBSFCdgQ,Sketch,941,"[{'alias': 'french', 'title': 'French'}, {'alias': 'modern_european', 'title': 'Modern European'}, {'alias': 'cocktailbars', 'title': 'Cocktail Bars'}]",4.0,334,51.5127614699071,-0.14159163911048,99e37e228edaf5187aa917de66113607
e5jPAqpCcIAsTtasUN5h2g,The Wolseley,607,"[{'alias': 'cafes', 'title': 'Cafes'}, {'alias': 'british', 'title': 'British'}, {'alias': 'tea', 'title': 'Tea Rooms'}]",4.0,315,51.507617,-0.141012,99e37e228edaf5187aa917de66113607
IBV7BsXnv2gX68nWUARhjw,Mother Mash,504,"[{'alias': 'british', 'title': 'British'}]",4.0,434,51.512935,-0.139414,99e37e228edaf5187aa917de66113607
qhbCUUn1CM27dvTPUwvAUA,Flat Iron,447,"[{'alias': 'steak', 'title': 'Steakhouses'}]",4.5,428,51.51212,-0.1384008,99e37e228edaf5187aa917de66113607
AMfqUC9oYC0xc55MaXbvAA,NOPI,281,"[{'alias': 'mediterranean', 'title': 'Mediterranean'}]",4.0,388,51.511617,-0.1385226,99e37e228edaf5187aa917de66113607
4VqbGRaYQJakPe2K6jKhOQ,Hyde Park,402,"[{'alias': 'parks', 'title': 'Parks'}]",4.5,926,51.5039538036569,-0.152711774741523,99e37e228edaf5187aa917de66113607
Vaq49W0ubGjuIc4h5_qQ0w,The Mayfair Chippy,376,"[{'alias': 'fishnchips', 'title': 'Fish & Chips'}]",4.5,769,51.5131345,-0.1533961,99e37e228edaf5187aa917de66113607
otUz0bAJLkorJkMgEjRErA,Burger & Lobster,243,"[{'alias': 'tradamerican', 'title': 'American (Traditional)'}, {'alias': 'burgers', 'title': 'Burgers'}, {'alias': 'seafood', 'title': 'Seafood'}]",4.5,364,51.5069919134923,-0.145631313738818,99e37e228edaf5187aa917de66113607
GSbQscE52ZfK43ykA6vLbg,Fortnum and Mason: Diamond Jubilee Tea Salon,294,"[{'alias': 'desserts', 'title': 'Desserts'}, {'alias': 'british', 'title': 'British'}, {'alias': 'tea', 'title': 'Tea Rooms'}]",4.0,388,51.5087069889729,-0.138279327972609,99e37e228edaf5187aa917de66113607
xEl4Oi1lfAa5g17Z5UsHNQ,Gymkhana,166,"[{'alias': 'indpak', 'title': 'Indian'}, {'alias': 'cocktailbars', 'title': 'Cocktail Bars'}]",4.5,216,51.50842,-0.1416607,99e37e228edaf5187aa917de66113607
sYwBQ7mJYhB35nn-_SZstQ,Yauatcha,518,"[{'alias': 'dimsum', 'title': 'Dim Sum'}, {'alias': 'seafood', 'title': 'Seafood'}, {'alias': 'noodles', 'title': 'Noodles'}]",4.0,711,51.5137076071076,-0.135128831605189,99e37e228edaf5187aa917de66113607
LOfW8J-1Tac-7aM04luJrg,Gelupo,213,"[{'alias': 'icecream', 'title': 'Ice Cream & Frozen Yogurt'}]",4.5,699,51.5115509033203,-0.133706003427505,99e37e228edaf5187aa917de66113607
zdyKTWY6jDasd6Q8BEJdAw,Honest Burgers Meard St - Soho,301,"[{'alias': 'burgers', 'title': 'Burgers'}]",4.5,827,51.5134184063764,-0.132883885733008,99e37e228edaf5187aa917de66113607
DnBY9gukSdy42EoJtBhdaQ,Tibits,165,"[{'alias': 'vegetarian', 'title': 'Vegetarian'}, {'alias': 'vegan', 'title': 'Vegan'}]",4.0,299,51.511302947998,-0.139624997973442,99e37e228edaf5187aa917de66113607
N7VEVrHgwcm4-Aj4neD79g,Hawksmoor,162,"[{'alias': 'seafood', 'title': 'Seafood'}, {'alias': 'steak', 'title': 'Steakhouses'}]",4.5,508,51.5097072807539,-0.136161326657445,99e37e228edaf5187aa917de66113607
LSvWWKNJi4-gaaRDU-VVYA,Golden Union Fish Bar,315,"[{'alias': 'fishnchips', 'title': 'Fish & Chips'}]",4.0,722,51.5153383,-0.1376925,99e37e228edaf5187aa917de66113607
tYynO1nOy1GKxMV3jkxbmw,The Breakfast Club,551,"[{'alias': 'coffee', 'title': 'Coffee & Tea'}, {'alias': 'breakfast_brunch', 'title': 'Breakfast & Brunch'}, {'alias': 'tradamerican', 'title': 'American (Traditional)'}]",4.0,769,51.514733,-0.135406,99e37e228edaf5187aa917de66113607
bXo_3uLhacyeGJ0iF743PQ,Mildreds,302,"[{'alias': 'vegan', 'title': 'Vegan'}, {'alias': 'salad', 'title': 'Salad'}, {'alias': 'burgers', 'title': 'Burgers'}]",4.0,593,51.5130233764648,-0.136484995484352,99e37e228edaf5187aa917de66113607
SuOm8qiv8MPAqj71PBI9bg,Shoryu Ramen,394,"[{'alias': 'japanese', 'title': 'Japanese'}]",4.0,690,51.508494856125,-0.13381448629492,99e37e228edaf5187aa917de66113607
Vaq49W0ubGjuIc4h5_qQ0w,The Mayfair Chippy,376,"[{'alias': 'fishnchips', 'title': 'Fish & Chips'}]",4.5,833,51.5131345,-0.1533961,de39548e3080840044daaa7b1e053c59
odnKjwTrgHDlgw0l43eKFA,The Golden Hind,262,"[{'alias': 'fishnchips', 'title': 'Fish & Chips'}]",4.0,384,51.5180015563965,-0.151026993989944,de39548e3080840044daaa7b1e053c59
hF7L2L1pcPqNrE0js9xMDw,The Wallace Collection,118,"[{'alias': 'museums', 'title': 'Museums'}, {'alias': 'galleries', 'title': 'Art Galleries'}, {'alias': 'venues', 'title': 'Venues & Event Spaces'}]",4.5,369,51.5174316756205,-0.153022552114862,de39548e3080840044daaa7b1e053c59
JSXnB6RipjQdQOXoh9IGgA,The Regent's Park,211,"[{'alias': 'parks', 'title': 'Parks'}]",4.5,859,51.5282902069734,-0.155611038208008,de39548e3080840044daaa7b1e053c59
skSR93eUT6KuFnDI4ksxUw,The Rajdoot,104,"[{'alias': 'indpak', 'title': 'Indian'}]",4.5,87,51.5205999,-0.153431,de39548e3080840044daaa7b1e053c59
CnxqwrH8M7QDzR2G2_taLw,Il Blandford's,79,"[{'alias': 'italian', 'title': 'Italian'}, {'alias': 'breakfast_brunch', 'title': 'Breakfast & Brunch'}, {'alias': 'pizza', 'title': 'Pizza'}]",4.5,78,51.520315,-0.155747,de39548e3080840044daaa7b1e053c59
RFyH1Qiv06LYHrwqzLkVXg,Roti Chai,310,"[{'alias': 'indpak', 'title': 'Indian'}, {'alias': 'kebab', 'title': 'Kebab'}]",4.0,666,51.5146226,-0.1557135,de39548e3080840044daaa7b1e053c59
cV9dn2Db9xzd4YnnEmMLnQ,Le Relais de Venise L'Entrec√¥te,195,"[{'alias': 'french', 'title': 'French'}, {'alias': 'steak', 'title': 'Steakhouses'}]",4.0,363,51.518264,-0.151117,de39548e3080840044daaa7b1e053c59
6tXkeZlisxTtdUsjDaTqaw,Chiltern Firehouse,166,"[{'alias': 'modern_european', 'title': 'Modern European'}, {'alias': 'french', 'title': 'French'}, {'alias': 'british', 'title': 'British'}]",4.0,208,51.5187121017659,-0.154846859653053,de39548e3080840044daaa7b1e053c59
bJiVADMSTEKj0MjqiLrOPA,The Grazing Goat Marylebone,270,"[{'alias': 'gastropubs', 'title': 'Gastropubs'}, {'alias': 'british', 'title': 'British'}]",4.0,628,51.515378341447,-0.15823586449841,de39548e3080840044daaa7b1e053c59
annFT8pEr7pjqCfQXKY9dw,Madame Tussaud's,323,"[{'alias': 'museums', 'title': 'Museums'}]",3.5,257,51.522895,-0.154968,de39548e3080840044daaa7b1e053c59
Y775ayDb-qviW7Ys_uzxEQ,Patty & Bun,197,"[{'alias': 'burgers', 'title': 'Burgers'}]",4.5,603,51.515786,-0.150785,de39548e3080840044daaa7b1e053c59
q-OOWNDtWue-ALqtnL2iDQ,Trishna,103,"[{'alias': 'indpak', 'title': 'Indian'}]",4.5,280,51.518294,-0.153047,de39548e3080840044daaa7b1e053c59
-hxvERPtfzzRMtEL-R661w,La Fromagerie,100,"[{'alias': 'cheese', 'title': 'Cheese Shops'}, {'alias': 'delis', 'title': 'Delis'}]",4.0,190,51.5198559022117,-0.152211421569433,de39548e3080840044daaa7b1e053c59
zJNI06Y2zZQFh9OBSFCdgQ,Sketch,941,"[{'alias': 'french', 'title': 'French'}, {'alias': 'modern_european', 'title': 'Modern European'}, {'alias': 'cocktailbars', 'title': 'Cocktail Bars'}]",4.0,1256,51.5127614699071,-0.14159163911048,de39548e3080840044daaa7b1e053c59
mvds37L7mCurGn3rGPM8ag,Kaffeine,181,"[{'alias': 'coffee', 'title': 'Coffee & Tea'}]",4.5,1019,51.51848,-0.14037,de39548e3080840044daaa7b1e053c59
y8xX3BDj1bf7-wc4Q9Atvg,The Monocle Cafe,71,"[{'alias': 'cafes', 'title': 'Cafes'}]",4.0,197,51.5188109085709,-0.154666668198166,de39548e3080840044daaa7b1e053c59
78YWTO9mTmA7WHOl5JmksQ,Purl,71,"[{'alias': 'lounges', 'title': 'Lounges'}]",4.0,236,51.518505,-0.154465,de39548e3080840044daaa7b1e053c59
C9pe5ristvyYnaGH8A8Urw,Fishworks,57,"[{'alias': 'seafood', 'title': 'Seafood'}]",4.0,177,51.5201578,-0.1520129,de39548e3080840044daaa7b1e053c59
1QzmZlxN3LRhBYYbCqjD-g,Zayna,101,"[{'alias': 'indpak', 'title': 'Indian'}, {'alias': 'pakistani', 'title': 'Pakistani'}, {'alias': 'halal', 'title': 'Halal'}]",4.0,669,51.514952,-0.158385,de39548e3080840044daaa7b1e053c59
vlq4D26p_143Tj21OF-iMA,Dishoom,577,"[{'alias': 'indpak', 'title': 'Indian'}, {'alias': 'breakfast_brunch', 'title': 'Breakfast & Brunch'}]",4.5,183,51.5245310066818,-0.076594190862934,75acd596908674204f6b8933c4d3d746
CrQcYS4nWWdXmSD1pxf_KA,Beigel Bake,489,"[{'alias': 'bakeries', 'title': 'Bakeries'}, {'alias': 'bagels', 'title': 'Bagels'}]",4.0,520,51.524391,-0.071726,75acd596908674204f6b8933c4d3d746
68gc1BAE1IT_zZghFafw0Q,Ozone Coffee,193,"[{'alias': 'coffee', 'title': 'Coffee & Tea'}, {'alias': 'breakfast_brunch', 'title': 'Breakfast & Brunch'}]",4.5,514,51.524683689256,-0.086674106560876,75acd596908674204f6b8933c4d3d746
hOLFwKg4-0FsCleJ4yoCXw,Duck & Waffle,827,"[{'alias': 'modern_european', 'title': 'Modern European'}, {'alias': 'bars', 'title': 'Bars'}, {'alias': 'british', 'title': 'British'}]",4.0,935,51.516178,-0.08094,75acd596908674204f6b8933c4d3d746
DI9SUiuxlf1WjkTu_jJSbg,Hawksmoor Spitalfields,177,"[{'alias': 'steak', 'title': 'Steakhouses'}, {'alias': 'british', 'title': 'British'}]",4.5,450,51.5211502,-0.075657,75acd596908674204f6b8933c4d3d746
qF2RobL-4k6IYnS6hpqEyA,Poppies,374,"[{'alias': 'fishnchips', 'title': 'Fish & Chips'}, {'alias': 'hotdogs', 'title': 'Fast Food'}]",4.0,594,51.5202629,-0.074075,75acd596908674204f6b8933c4d3d746
vCF8ut7OZcfA4hEmhngfSQ,Andina,148,"[{'alias': 'breakfast_brunch', 'title': 'Breakfast & Brunch'}, {'alias': 'peruvian', 'title': 'Peruvian'}]",4.0,147,51.5243208695971,-0.077134990126122,75acd596908674204f6b8933c4d3d746
emdb4ELhKKQXpJ0lIOdg0w,Nightjar,186,"[{'alias': 'lounges', 'title': 'Lounges'}, {'alias': 'cocktailbars', 'title': 'Cocktail Bars'}]",4.5,626,51.5265350341797,-0.0877109989523888,75acd596908674204f6b8933c4d3d746
